%time,field.steer,field.throttle,field.brake,field.handbrake,field.clutch,field.manual_gear,field.automatic_gear
166196000000,-0.13333334028720856,0.2666666805744171,0.0,0.0,0.0,0,4
166292000000,-0.012972076423466206,0.4987459182739258,0.0,0.0,0.0,0,4
166392000000,-0.13629338145256042,0.5261743068695068,0.0,0.0,0.0,0,4
166416000000,-0.07603000104427338,0.7074862718582153,0.0,0.0,0.0,0,4
166508000000,0.05730213224887848,0.9741523861885071,0.0,0.0,0.0,0,4
166632000000,0.19063542783260345,0.70808345079422,0.0,0.0,0.0,0,4
166732000000,0.323968768119812,0.9423225522041321,0.0,0.0,0.0,0,4
166840000000,0.4462566077709198,0.9550347328186035,0.0,0.0,0.0,0,4
166928000000,0.5449248552322388,0.8981252908706665,0.0,0.0,0.0,0,4
167008000000,0.6782230138778687,0.935019850730896,0.0,0.0,0.0,0,4
167140000000,0.8115469813346863,0.9470712542533875,0.0,0.0,0.0,0,4
167268000000,0.9371468424797058,0.8324135541915894,0.0,0.0,0.0,0,4
167328000000,0.9640305042266846,0.8177325129508972,0.0,0.0,0.0,0,4
167428000000,0.9829553961753845,0.7243258953094482,0.0,0.0,0.0,0,4
167552000000,0.981975257396698,0.6724028587341309,0.0,0.0,0.0,0,4
167676000000,0.9749831557273865,0.6755604147911072,0.0,0.0,0.0,0,4
167800000000,0.9611832499504089,0.6093107461929321,0.0,0.0,0.0,0,4
167824000000,0.9751365780830383,0.7092822194099426,0.0,0.0,0.0,0,4
167928000000,0.9656234979629517,0.6268966197967529,0.0,0.0,0.0,0,4
168048000000,0.9241389036178589,0.7330093383789062,0.0,0.0,0.0,0,4
168116000000,0.8882909417152405,0.6633520126342773,0.0,0.0,0.0,0,4
168232000000,0.9573880434036255,0.6511044502258301,0.0,0.0,0.0,0,4
168324000000,0.874796986579895,0.6074731945991516,0.0,0.0,0.0,0,4
168424000000,0.8080110549926758,0.5995124578475952,0.0,0.0,0.0,0,4
168548000000,0.7391145825386047,0.7346769571304321,0.0,0.0,0.0,0,4
168672000000,0.6573390364646912,0.7924357652664185,0.0,0.0,0.0,0,4
168728000000,0.5398178696632385,0.7548509836196899,0.0,0.0,0.0,0,4
168824000000,0.4609454274177551,0.8005813956260681,0.0,0.0,0.0,0,4
168944000000,0.36346977949142456,0.7555119395256042,0.0,0.0,0.0,0,4
169044000000,0.25554242730140686,0.6380606889724731,0.0,0.0,0.0,0,4
169148000000,0.146575465798378,0.6616707444190979,0.0,0.0,0.0,0,4
169260000000,0.09759104251861572,0.5982228517532349,0.0,0.0,0.0,0,4
169352000000,0.04214681312441826,0.5274480581283569,0.0,0.0,0.0,0,4
169452000000,-0.0006131893023848534,0.4649187922477722,0.0,0.0,0.0,0,4
169576000000,0.08954359591007233,0.5161522030830383,0.0,0.0,0.0,0,4
169600000000,0.18165677785873413,0.5285941362380981,0.0,0.0,0.0,0,4
169700000000,0.1762753427028656,0.5735772848129272,0.0,0.0,0.0,0,4
169824000000,0.15516425669193268,0.5697517991065979,0.0,0.0,0.0,0,4
169880000000,0.06039195880293846,0.3559270203113556,0.0,0.0,0.0,0,4
170008000000,0.04258975014090538,0.14198634028434753,0.0,0.0,0.0,0,4
170096000000,-0.08503679931163788,0.0,0.08139578253030777,0.0,0.0,0,4
170196000000,-0.17194686830043793,0.0,0.31533557176589966,0.0,0.0,0,4
170320000000,-0.25603237748146057,0.0,0.43331560492515564,0.0,0.0,0,4
170408000000,-0.2730005979537964,0.0,0.44230717420578003,0.0,0.0,0,4
170500000000,-0.26642608642578125,0.0,0.3958125412464142,0.0,0.0,0,4
170600000000,-0.2951842248439789,0.0,0.35198065638542175,0.0,0.0,0,4
170724000000,-0.29573893547058105,0.0,0.3770764172077179,0.0,0.0,0,4
170852000000,-0.29308512806892395,0.0,0.37932059168815613,0.0,0.0,0,4
170908000000,-0.27742257714271545,0.0,0.3815453052520752,0.0,0.0,0,4
171032000000,-0.23760145902633667,0.0,0.3911454677581787,0.0,0.0,0,4
171124000000,-0.21136103570461273,0.0,0.35372573137283325,0.0,0.0,0,4
171256000000,-0.21023020148277283,0.0,0.26584839820861816,0.0,0.0,0,4
171324000000,-0.23157083988189697,0.0,0.16307653486728668,0.0,0.0,0,4
171440000000,-0.2174961268901825,0.0,0.11810190230607986,0.0,0.0,0,4
171532000000,-0.21361547708511353,0.0,0.08884458988904953,0.0,0.0,0,4
171632000000,-0.1824609637260437,0.0,0.09671502560377121,0.0,0.0,0,4
171756000000,-0.1557934433221817,0.0,0.09986577928066254,0.0,0.0,0,4
171848000000,-0.12163148075342178,0.0,0.14345495402812958,0.0,0.0,0,4
171936000000,-0.09549831598997116,0.0,0.14645983278751373,0.0,0.0,0,4
172028000000,-0.0757373496890068,0.0,0.1689145714044571,0.0,0.0,0,4
172128000000,-0.05861062556505203,0.0,0.1752168834209442,0.0,0.0,0,4
172252000000,-0.039458852261304855,0.0,0.15833325684070587,0.0,0.0,0,4
172376000000,-0.030957479029893875,0.0,0.17820796370506287,0.0,0.0,0,4
172404000000,-0.0,0.0,0.5,0.0,0.0,0,4
172456000000,-0.0,0.0,0.5,0.0,0.0,0,4
172500000000,-0.0,0.0,0.5,0.0,0.0,0,4
172528000000,-0.0,0.0,0.5,0.0,0.0,0,4
172556000000,-0.0,0.0,0.5,0.0,0.0,0,4
172608000000,-0.0,0.0,0.5,0.0,0.0,0,4
172624000000,-0.0,0.0,0.5,0.0,0.0,0,4
172648000000,-0.0,0.0,0.5,0.0,0.0,0,4
172680000000,-0.0,0.0,0.5,0.0,0.0,0,4
172716000000,-0.0,0.0,0.5,0.0,0.0,0,4
172748000000,-0.0,0.0,0.5,0.0,0.0,0,4
172772000000,-0.0,0.0,0.5,0.0,0.0,0,4
172804000000,-0.0,0.0,0.5,0.0,0.0,0,4
172872000000,-0.0,0.0,0.5,0.0,0.0,0,4
172896000000,-0.0,0.0,0.5,0.0,0.0,0,4
172928000000,-0.0,0.0,0.5,0.0,0.0,0,4
172968000000,-0.0,0.0,0.5,0.0,0.0,0,4
172996000000,-0.0,0.0,0.5,0.0,0.0,0,4
174952000000,0.13223177194595337,0.23103322088718414,0.0,0.0,0.0,0,4
175080000000,0.2650741636753082,0.44681766629219055,0.0,0.0,0.0,0,4
175172000000,0.13310858607292175,0.7134569883346558,0.0,0.0,0.0,0,4
175268000000,0.18907076120376587,0.9302127361297607,0.0,0.0,0.0,0,4
175360000000,0.2507312297821045,0.9007317423820496,0.0,0.0,0.0,0,4
175460000000,0.3068162500858307,0.8799267411231995,0.0,0.0,0.0,0,4
175588000000,0.35477861762046814,0.9448551535606384,0.0,0.0,0.0,0,4
175716000000,0.3945228159427643,0.9437302350997925,0.0,0.0,0.0,0,4
175776000000,0.41044673323631287,0.9278562664985657,0.0,0.0,0.0,0,4
175880000000,0.45172199606895447,0.9376178979873657,0.0,0.0,0.0,0,4
176000000000,0.45951125025749207,0.9292736053466797,0.0,0.0,0.0,0,4
176124000000,0.4869695007801056,0.902495265007019,0.0,0.0,0.0,0,4
176252000000,0.4677865207195282,0.8938850164413452,0.0,0.0,0.0,0,4
176312000000,0.3399040997028351,0.9891057014465332,0.0,0.0,0.0,0,4
176404000000,0.267250120639801,0.7945109009742737,0.0,0.0,0.0,0,4
176504000000,0.32109394669532776,0.9240182042121887,0.0,0.0,0.0,0,4
176632000000,0.3704206049442291,0.8854634165763855,0.0,0.0,0.0,0,4
176660000000,0.364657461643219,0.8730575442314148,0.0,0.0,0.0,0,4
176760000000,0.33335983753204346,0.8451657295227051,0.0,0.0,0.0,0,4
176884000000,0.29907432198524475,0.8219138979911804,0.0,0.0,0.0,0,4
176908000000,0.25015121698379517,0.8626723289489746,0.0,0.0,0.0,0,4
177040000000,0.2250787317752838,0.8763462901115417,0.0,0.0,0.0,0,4
177096000000,0.17387349903583527,0.861862063407898,0.0,0.0,0.0,0,4
177144000000,0.1499907523393631,0.8281885385513306,0.0,0.0,0.0,0,4
177220000000,0.07858743518590927,0.7581959962844849,0.0,0.0,0.0,0,4
177312000000,-0.007983669638633728,0.8058992624282837,0.0,0.0,0.0,0,4
177412000000,-0.030249059200286865,0.7265141010284424,0.0,0.0,0.0,0,4
177536000000,-0.02571357972919941,0.6531550288200378,0.0,0.0,0.0,0,4
177628000000,-0.05803893133997917,0.6303008198738098,0.0,0.0,0.0,0,4
177720000000,-0.09941553324460983,0.5364452600479126,0.0,0.0,0.0,0,4
177844000000,-0.16321028769016266,0.5264920592308044,0.0,0.0,0.0,0,4
177876000000,-0.17261873185634613,0.4889976382255554,0.0,0.0,0.0,0,4
177968000000,-0.14986227452754974,0.5324732065200806,0.0,0.0,0.0,0,4
178060000000,-0.15587356686592102,0.5140735507011414,0.0,0.0,0.0,0,4
178160000000,-0.19819289445877075,0.5496108531951904,0.0,0.0,0.0,0,4
178320000000,-0.1479634791612625,0.45572033524513245,0.0,0.0,0.0,0,4
178344000000,-0.15336661040782928,0.3349904716014862,0.0,0.0,0.0,0,4
178444000000,-0.14447401463985443,0.21346431970596313,0.0,0.0,0.0,0,4
178568000000,-0.10960759222507477,0.057540666311979294,0.0,0.0,0.0,0,4
178676000000,-0.09194613993167877,0.0,0.1218777596950531,0.0,0.0,0,4
178748000000,-0.058569930493831635,0.0,0.273501455783844,0.0,0.0,0,4
178840000000,-0.05066482350230217,0.0,0.3413354456424713,0.0,0.0,0,4
178940000000,-0.03675617277622223,0.0,0.36825159192085266,0.0,0.0,0,4
179064000000,-0.014154452830553055,0.0,0.43637219071388245,0.0,0.0,0,4
179184000000,0.003874776652082801,0.0,0.4448912739753723,0.0,0.0,0,4
179244000000,0.018095841631293297,0.0,0.45186877250671387,0.0,0.0,0,4
179368000000,0.021625736728310585,0.0,0.37184345722198486,0.0,0.0,0,4
179460000000,0.03664251044392586,0.0,0.2886931002140045,0.0,0.0,0,4
179560000000,0.03151455149054527,0.0,0.2648777663707733,0.0,0.0,0,4
179652000000,0.032420746982097626,0.0,0.21447789669036865,0.0,0.0,0,4
179688000000,0.029883574694395065,0.0,0.20213043689727783,0.0,0.0,0,4
179776000000,0.03909352421760559,0.0,0.20604999363422394,0.0,0.0,0,4
179872000000,0.050985291600227356,0.0,0.1709488183259964,0.0,0.0,0,4
180004000000,0.059449099004268646,0.0,0.2034837007522583,0.0,0.0,0,4
180060000000,0.0681225061416626,0.0,0.21573233604431152,0.0,0.0,0,4
180152000000,0.05965881049633026,0.0,0.25916537642478943,0.0,0.0,0,4
180252000000,0.06597034633159637,0.0,0.3078935444355011,0.0,0.0,0,4
180376000000,0.05519024655222893,0.0,0.3489144742488861,0.0,0.0,0,4
180500000000,0.05804581195116043,0.0,0.4205107092857361,0.0,0.0,0,4
180528000000,0.05257507786154747,0.0,0.4269242584705353,0.0,0.0,0,4
180632000000,0.05251592770218849,0.0,0.40451332926750183,0.0,0.0,0,4
180720000000,-0.0,0.0,0.5,0.0,0.0,0,4
180776000000,-0.0,0.0,0.5,0.0,0.0,0,4
180808000000,-0.0,0.0,0.5,0.0,0.0,0,4
180832000000,-0.0,0.0,0.5,0.0,0.0,0,4
180864000000,-0.0,0.0,0.5,0.0,0.0,0,4
180928000000,-0.0,0.0,0.5,0.0,0.0,0,4
180956000000,-0.0,0.0,0.5,0.0,0.0,0,4
180988000000,-0.0,0.0,0.5,0.0,0.0,0,4
181056000000,-0.0,0.0,0.5,0.0,0.0,0,4
181084000000,-0.0,0.0,0.5,0.0,0.0,0,4
181116000000,-0.0,0.0,0.5,0.0,0.0,0,4
181180000000,-0.0,0.0,0.5,0.0,0.0,0,4
181212000000,-0.0,0.0,0.5,0.0,0.0,0,4
181276000000,-0.0,0.0,0.5,0.0,0.0,0,4
181332000000,-0.0,0.0,0.5,0.0,0.0,0,4
181368000000,-0.0,0.0,0.5,0.0,0.0,0,4
181432000000,-0.0,0.0,0.5,0.0,0.0,0,4
181460000000,-0.0,0.0,0.5,0.0,0.0,0,4
181492000000,-0.0,0.0,0.5,0.0,0.0,0,4
181528000000,-0.0,0.0,0.5,0.0,0.0,0,4
181560000000,-0.0,0.0,0.5,0.0,0.0,0,4
181584000000,-0.0,0.0,0.5,0.0,0.0,0,2
182684000000,-0.13154521584510803,0.20830917358398438,0.0,0.0,0.0,0,2
182776000000,-0.16343465447425842,0.36441946029663086,0.0,0.0,0.0,0,2
182876000000,-0.1527150422334671,0.5246632099151611,0.0,0.0,0.0,0,2
183004000000,-0.17955473065376282,0.7688869833946228,0.0,0.0,0.0,0,2
183096000000,-0.1408064216375351,0.8879126906394958,0.0,0.0,0.0,0,2
183188000000,-0.17452770471572876,0.9182791709899902,0.0,0.0,0.0,0,2
183280000000,-0.19023160636425018,0.8795292973518372,0.0,0.0,0.0,0,2
183380000000,-0.14952115714550018,0.9404191970825195,0.0,0.0,0.0,0,2
183504000000,-0.18153701722621918,0.9336847066879272,0.0,0.0,0.0,0,2
183596000000,-0.1706543117761612,0.9234871864318848,0.0,0.0,0.0,0,2
183688000000,-0.22406241297721863,0.9451870322227478,0.0,0.0,0.0,0,2
183780000000,-0.2079586237668991,0.9294173717498779,0.0,0.0,0.0,0,2
183880000000,-0.20573453605175018,0.933160662651062,0.0,0.0,0.0,0,2
184032000000,-0.1878424435853958,0.925352156162262,0.0,0.0,0.0,0,2
184096000000,-0.2156704217195511,0.9203001856803894,0.0,0.0,0.0,0,2
184188000000,-0.23223334550857544,0.9359403252601624,0.0,0.0,0.0,0,2
184288000000,-0.20554284751415253,0.8834590315818787,0.0,0.0,0.0,0,2
184416000000,-0.22054611146450043,0.9565683603286743,0.0,0.0,0.0,0,2
184540000000,-0.24701733887195587,0.931529700756073,0.0,0.0,0.0,0,2
184664000000,-0.27571314573287964,0.9339026808738708,0.0,0.0,0.0,0,2
184688000000,-0.26428234577178955,0.9302220940589905,0.0,0.0,0.0,0,2
184788000000,-0.2745167016983032,0.9272539019584656,0.0,0.0,0.0,0,2
184916000000,-0.27599358558654785,0.9059011936187744,0.0,0.0,0.0,0,2
184940000000,-0.28812268376350403,0.9181483387947083,0.0,0.0,0.0,0,2
185040000000,-0.27025729417800903,0.9333014488220215,0.0,0.0,0.0,0,2
185168000000,-0.2659280002117157,0.8873956799507141,0.0,0.0,0.0,0,2
185224000000,-0.25365740060806274,0.9220545291900635,0.0,0.0,0.0,0,2
185352000000,-0.2572273910045624,0.9287118911743164,0.0,0.0,0.0,0,2
185476000000,-0.26481401920318604,0.9210007786750793,0.0,0.0,0.0,0,2
185508000000,-0.27118808031082153,0.9126586318016052,0.0,0.0,0.0,0,2
185600000000,-0.26530835032463074,0.8947550654411316,0.0,0.0,0.0,0,2
185692000000,-0.2551439702510834,0.9014769196510315,0.0,0.0,0.0,0,2
185824000000,-0.27298271656036377,0.9254606366157532,0.0,0.0,0.0,0,2
185884000000,-0.2503020763397217,0.911950409412384,0.0,0.0,0.0,0,2
186008000000,-0.24375265836715698,0.9441187977790833,0.0,0.0,0.0,0,2
186100000000,-0.2205360233783722,0.9112060070037842,0.0,0.0,0.0,0,2
186200000000,-0.19463254511356354,0.9379125237464905,0.0,0.0,0.0,0,2
186328000000,-0.18341094255447388,0.897885799407959,0.0,0.0,0.0,0,2
186420000000,-0.18652182817459106,0.9254552125930786,0.0,0.0,0.0,0,2
186516000000,-0.19834178686141968,0.9022010564804077,0.0,0.0,0.0,0,2
186612000000,-0.21294674277305603,0.8934264779090881,0.0,0.0,0.0,0,2
186736000000,-0.19977007806301117,0.9436076879501343,0.0,0.0,0.0,0,2
186832000000,-0.19160081446170807,0.9315248727798462,0.0,0.0,0.0,0,2
186920000000,-0.19605112075805664,0.9147047996520996,0.0,0.0,0.0,0,2
187012000000,-0.2145153433084488,0.9141256809234619,0.0,0.0,0.0,0,2
187112000000,-0.20743849873542786,0.9180570244789124,0.0,0.0,0.0,0,2
187236000000,-0.18494190275669098,0.9057566523551941,0.0,0.0,0.0,0,2
187328000000,-0.13457895815372467,0.9163064956665039,0.0,0.0,0.0,0,2
187424000000,-0.11805550754070282,0.908591628074646,0.0,0.0,0.0,0,2
187520000000,-0.10465869307518005,0.9271900057792664,0.0,0.0,0.0,0,2
187648000000,-0.09156202524900436,0.9169593453407288,0.0,0.0,0.0,0,2
187772000000,-0.07452981919050217,0.892240047454834,0.0,0.0,0.0,0,2
187832000000,-0.06284110248088837,0.9103447198867798,0.0,0.0,0.0,0,2
187932000000,-0.015625063329935074,0.9102051258087158,0.0,0.0,0.0,0,2
188060000000,-0.0002548014745116234,0.8966274261474609,0.0,0.0,0.0,0,2
188160000000,0.03016711212694645,0.8927088379859924,0.0,0.0,0.0,0,2
188240000000,0.01804020255804062,0.8881516456604004,0.0,0.0,0.0,0,2
188332000000,0.02106662094593048,0.8975405097007751,0.0,0.0,0.0,0,2
188432000000,0.030591608956456184,0.8802353143692017,0.0,0.0,0.0,0,2
188556000000,0.034876901656389236,0.8970621824264526,0.0,0.0,0.0,0,2
188680000000,0.05573682114481926,0.887539803981781,0.0,0.0,0.0,0,2
188740000000,0.060541026294231415,0.8887427449226379,0.0,0.0,0.0,0,2
188832000000,0.05519464984536171,0.890521764755249,0.0,0.0,0.0,0,2
188932000000,0.07378958910703659,0.905677855014801,0.0,0.0,0.0,0,2
189060000000,0.06260018050670624,0.8838274478912354,0.0,0.0,0.0,0,2
189184000000,0.06012793630361557,0.8468897938728333,0.0,0.0,0.0,0,2
189208000000,0.08870584517717361,0.8934305906295776,0.0,0.0,0.0,0,2
189308000000,0.1215362623333931,0.8723307251930237,0.0,0.0,0.0,0,2
189432000000,0.09797962754964828,0.8565321564674377,0.0,0.0,0.0,0,2
189492000000,-0.008638426661491394,0.9308905601501465,0.0,0.0,0.0,0,2
189616000000,-0.12739133834838867,0.9376101493835449,0.0,0.0,0.0,0,2
189712000000,-0.25762447714805603,0.8861411213874817,0.0,0.0,0.0,0,2
189836000000,-0.3862708508968353,0.6998470425605774,0.0,0.0,0.0,0,2
189936000000,-0.3566027581691742,0.8688058257102966,0.0,0.0,0.0,0,2
190024000000,-0.4023619592189789,0.9885935187339783,0.0,0.0,0.0,0,2
190116000000,-0.35954222083091736,0.969102680683136,0.0,0.0,0.0,0,2
190208000000,-0.30615469813346863,0.9967417120933533,0.0,0.0,0.0,0,2
190340000000,-0.23272542655467987,0.9846215844154358,0.0,0.0,0.0,0,2
190468000000,-0.10528293997049332,0.9998648762702942,0.0,0.0,0.0,0,2
190492000000,-0.10277443379163742,0.9869911670684814,0.0,0.0,0.0,0,2
190592000000,0.03055732697248459,0.9762625694274902,0.0,0.0,0.0,0,2
190716000000,0.16221031546592712,0.9932621717453003,0.0,0.0,0.0,0,2
190808000000,0.17200638353824615,0.9835098385810852,0.0,0.0,0.0,0,2
190896000000,0.30533891916275024,0.9999231696128845,0.0,0.0,0.0,0,2
190988000000,0.39702120423316956,0.9999851584434509,0.0,0.0,0.0,0,2
191088000000,0.530029833316803,0.7723795175552368,0.0,0.0,0.0,0,2
191216000000,0.6631094813346863,0.9475072622299194,0.0,0.0,0.0,0,2
191304000000,0.768496036529541,0.9685530066490173,0.0,0.0,0.0,0,2
191396000000,0.8455478549003601,0.8818827271461487,0.0,0.0,0.0,0,2
191488000000,0.8274771571159363,0.615859866142273,0.0,0.0,0.0,0,2
191620000000,0.9603623747825623,0.4237477481365204,0.0,0.0,0.0,0,2
191712000000,0.9511417746543884,0.6513193249702454,0.0,0.0,0.0,0,2
191836000000,0.9757587909698486,0.5397555232048035,0.0,0.0,0.0,0,2
191904000000,0.9999759793281555,0.2795444428920746,0.0,0.0,0.0,0,2
192028000000,0.9763153195381165,0.19207552075386047,0.0,0.0,0.0,0,2
192120000000,0.9994579553604126,0.23858237266540527,0.0,0.0,0.0,0,2
192208000000,0.997888445854187,0.3342948257923126,0.0,0.0,0.0,0,2
192300000000,0.9967314600944519,0.4596591293811798,0.0,0.0,0.0,0,2
192432000000,0.9845831394195557,0.2561076879501343,0.0,0.0,0.0,0,2
192528000000,0.9889984130859375,0.07582748681306839,0.0,0.0,0.0,0,2
192616000000,0.999853789806366,0.3386642038822174,0.0,0.0,0.0,0,2
192744000000,0.9786956310272217,0.4699031412601471,0.0,0.0,0.0,0,2
192836000000,0.9968971610069275,0.4622177481651306,0.0,0.0,0.0,0,2
192964000000,0.9903073310852051,0.27976760268211365,0.0,0.0,0.0,0,2
192996000000,0.9925349950790405,0.20945844054222107,0.0,0.0,0.0,0,2
193088000000,0.9929466247558594,0.0901210680603981,0.0,0.0,0.0,0,2
193188000000,0.9659902453422546,0.24908718466758728,0.0,0.0,0.0,0,2
193216000000,0.9936487674713135,0.09202036261558533,0.0,0.0,0.0,0,2
193312000000,0.978690505027771,0.12246432155370712,0.0,0.0,0.0,0,2
193436000000,0.9136818647384644,0.23754771053791046,0.0,0.0,0.0,0,2
193492000000,0.9975952506065369,0.24848657846450806,0.0,0.0,0.0,0,2
193620000000,0.9568043351173401,0.36627545952796936,0.0,0.0,0.0,0,2
193720000000,0.8939509987831116,0.4413365423679352,0.0,0.0,0.0,0,2
193840000000,0.8851290941238403,0.501429557800293,0.0,0.0,0.0,0,2
193900000000,0.8592963218688965,0.5168559551239014,0.0,0.0,0.0,0,2
193996000000,0.7923913598060608,0.5014567971229553,0.0,0.0,0.0,0,2
194116000000,0.7269092202186584,0.6493068933486938,0.0,0.0,0.0,0,2
194216000000,0.7274577021598816,0.7449164390563965,0.0,0.0,0.0,0,2
194344000000,0.6404725313186646,0.816901683807373,0.0,0.0,0.0,0,2
194412000000,0.5560036897659302,0.7274536490440369,0.0,0.0,0.0,0,2
194524000000,0.4331315755844116,0.7865484952926636,0.0,0.0,0.0,0,2
194616000000,0.3287366032600403,0.6448277235031128,0.0,0.0,0.0,0,2
194716000000,0.22388388216495514,0.48602086305618286,0.0,0.0,0.0,0,2
194840000000,0.14493560791015625,0.44802695512771606,0.0,0.0,0.0,0,2
194964000000,0.045347828418016434,0.41079288721084595,0.0,0.0,0.0,0,2
194992000000,0.009265907108783722,0.3803075850009918,0.0,0.0,0.0,0,2
195088000000,-0.0717252641916275,0.2525307536125183,0.0,0.0,0.0,0,2
195212000000,-0.16093809902668,0.21448150277137756,0.0,0.0,0.0,0,2
195304000000,-0.26156267523765564,0.14920823276042938,0.0,0.0,0.0,0,2
195396000000,-0.36074599623680115,0.0,0.023433271795511246,0.0,0.0,0,2
195488000000,-0.44167909026145935,0.0,0.17604222893714905,0.0,0.0,0,2
195588000000,-0.5302057266235352,0.0,0.22990643978118896,0.0,0.0,0,2
195712000000,-0.6286813020706177,0.0,0.3052109479904175,0.0,0.0,0,2
195840000000,-0.7056683301925659,0.0,0.27688077092170715,0.0,0.0,0,2
195932000000,-0.7754600048065186,0.0,0.28429076075553894,0.0,0.0,0,2
195988000000,-0.839609682559967,0.0,0.3954486846923828,0.0,0.0,0,2
196116000000,-0.919399619102478,0.0,0.4283543527126312,0.0,0.0,0,2
196216000000,-0.9751262664794922,0.0,0.551069974899292,0.0,0.0,0,2
196340000000,-0.9417455792427063,0.0,0.5316212773323059,0.0,0.0,0,2
196412000000,-0.9047965407371521,0.0,0.453446626663208,0.0,0.0,0,2
196532000000,-0.8234800100326538,0.0,0.18952596187591553,0.0,0.0,0,2
196616000000,-0.8331215977668762,0.0,0.38336724042892456,0.0,0.0,0,2
196728000000,-0.7578343152999878,0.0,0.20395007729530334,0.0,0.0,0,2
196812000000,-0.705072283744812,0.0,0.18362894654273987,0.0,0.0,0,2
196936000000,-0.6333634853363037,0.0,0.23358675837516785,0.0,0.0,0,2
197040000000,-0.6256131529808044,0.0,0.2604093849658966,0.0,0.0,0,2
197128000000,-0.5991812348365784,0.3080008625984192,0.0,0.0,0.0,0,4
197252000000,-0.5777294635772705,0.4205540716648102,0.0,0.0,0.0,0,4
197376000000,-0.544418454170227,0.43492332100868225,0.0,0.0,0.0,0,4
197384000000,-0.4975258409976959,0.5304992198944092,0.0,0.0,0.0,0,4
197528000000,-0.43242356181144714,0.6469265222549438,0.0,0.0,0.0,0,4
197628000000,-0.3752782344818115,0.7235117554664612,0.0,0.0,0.0,0,4
197688000000,-0.3158503770828247,0.8411458134651184,0.0,0.0,0.0,0,4
197812000000,-0.251039981842041,0.8523502349853516,0.0,0.0,0.0,0,4
197904000000,-0.22274543344974518,0.9212942719459534,0.0,0.0,0.0,0,4
198008000000,-0.16734899580478668,0.9426095485687256,0.0,0.0,0.0,0,4
198108000000,-0.11145051568746567,0.8996392488479614,0.0,0.0,0.0,0,4
198204000000,-0.0403408482670784,0.8611646294593811,0.0,0.0,0.0,0,4
198328000000,0.007323965430259705,0.8814926147460938,0.0,0.0,0.0,0,4
198444000000,-0.008258983492851257,0.7472313046455383,0.0,0.0,0.0,0,4
198504000000,0.061619583517313004,0.8273099064826965,0.0,0.0,0.0,0,4
198600000000,0.14146389067173004,0.8867427706718445,0.0,0.0,0.0,0,4
198700000000,0.21571648120880127,0.856013834476471,0.0,0.0,0.0,0,4
198824000000,0.2557208836078644,0.8869641423225403,0.0,0.0,0.0,0,4
198952000000,0.2253498136997223,0.8431077003479004,0.0,0.0,0.0,0,4
199016000000,0.17825543880462646,0.8492255806922913,0.0,0.0,0.0,0,4
199136000000,0.15924189984798431,0.7895369529724121,0.0,0.0,0.0,0,4
199236000000,0.11493229120969772,0.7307249307632446,0.0,0.0,0.0,0,4
199300000000,0.1301717460155487,0.6760894060134888,0.0,0.0,0.0,0,4
199428000000,0.13746732473373413,0.6016523838043213,0.0,0.0,0.0,0,4
199516000000,0.1741015613079071,0.5822920799255371,0.0,0.0,0.0,0,4
199612000000,0.16504323482513428,0.6114400029182434,0.0,0.0,0.0,0,4
199740000000,0.14405348896980286,0.4599993824958801,0.0,0.0,0.0,0,4
199864000000,0.07502147555351257,0.3181837499141693,0.0,0.0,0.0,0,4
199864000000,0.09674546122550964,0.32965606451034546,0.0,0.0,0.0,0,4
199984000000,0.03244791552424431,0.21316038072109222,0.0,0.0,0.0,0,4
200108000000,0.03947465866804123,0.14535650610923767,0.0,0.0,0.0,0,4
200136000000,0.022897347807884216,0.10973945260047913,0.0,0.0,0.0,0,4
200260000000,0.001736610196530819,0.06377972662448883,0.0,0.0,0.0,0,4
200324000000,-0.030380960553884506,0.0,0.029253114014863968,0.0,0.0,0,4
200416000000,-0.026514174416661263,0.0,0.11364126950502396,0.0,0.0,0,4
200516000000,-0.0326622799038887,0.0,0.1571301817893982,0.0,0.0,0,4
200640000000,-0.026985064148902893,0.0,0.23722760379314423,0.0,0.0,0,4
200764000000,-0.04757384583353996,0.0,0.23837874829769135,0.0,0.0,0,4
200832000000,-0.044499337673187256,0.0,0.20527023077011108,0.0,0.0,0,4
200948000000,-0.03108792193233967,0.0,0.19071534276008606,0.0,0.0,0,4
201076000000,-0.024248024448752403,0.0,0.17168235778808594,0.0,0.0,0,4
201108000000,-0.03249866142868996,0.0,0.18429207801818848,0.0,0.0,0,4
201192000000,-0.031981416046619415,0.0,0.16896910965442657,0.0,0.0,0,4
201288000000,-0.028638014569878578,0.0,0.19264401495456696,0.0,0.0,0,4
201408000000,-0.027037257328629494,0.0,0.2005758136510849,0.0,0.0,0,4
201508000000,-0.028224479407072067,0.0,0.22874382138252258,0.0,0.0,0,4
201636000000,-0.03561374545097351,0.0,0.24538028240203857,0.0,0.0,0,4
201692000000,-0.03794238343834877,0.0,0.29665815830230713,0.0,0.0,0,4
201792000000,-0.044551875442266464,0.0,0.3137591779232025,0.0,0.0,0,4
201916000000,-0.049410153180360794,0.0,0.3359491527080536,0.0,0.0,0,4
202040000000,-0.046372056007385254,0.0,0.31024861335754395,0.0,0.0,0,4
202112000000,-0.051664549857378006,0.0,0.32632580399513245,0.0,0.0,0,4
202164000000,-0.0,0.0,0.5,0.0,0.0,0,4
202192000000,-0.0,0.0,0.5,0.0,0.0,0,4
202216000000,-0.0,0.0,0.5,0.0,0.0,0,4
202280000000,-0.0,0.0,0.5,0.0,0.0,0,4
202304000000,-0.0,0.0,0.5,0.0,0.0,0,4
202372000000,-0.0,0.0,0.5,0.0,0.0,0,4
202404000000,-0.0,0.0,0.5,0.0,0.0,0,4
202428000000,-0.0,0.0,0.5,0.0,0.0,0,4
202460000000,-0.0,0.0,0.5,0.0,0.0,0,4
202496000000,-0.0,0.0,0.5,0.0,0.0,0,4
202536000000,-0.0,0.0,0.5,0.0,0.0,0,4
202560000000,-0.0,0.0,0.5,0.0,0.0,0,4
202588000000,-0.0,0.0,0.5,0.0,0.0,0,4
202652000000,-0.0,0.0,0.5,0.0,0.0,0,4
202720000000,-0.0,0.0,0.5,0.0,0.0,0,4
202748000000,-0.0,0.0,0.5,0.0,0.0,0,4
202812000000,-0.0,0.0,0.5,0.0,0.0,0,4
202844000000,-0.0,0.0,0.5,0.0,0.0,0,4
204504000000,-0.03921322524547577,0.23072178661823273,0.0,0.0,0.0,0,4
204628000000,0.09235018491744995,0.4971632659435272,0.0,0.0,0.0,0,4
204728000000,-0.007970012724399567,0.7637980580329895,0.0,0.0,0.0,0,4
204820000000,-0.13904711604118347,0.9793238043785095,0.0,0.0,0.0,0,4
204908000000,-0.27008870244026184,0.9992969632148743,0.0,0.0,0.0,0,4
205024000000,-0.391202837228775,0.9940744638442993,0.0,0.0,0.0,0,4
205160000000,-0.4500456750392914,0.9272570610046387,0.0,0.0,0.0,0,4
205192000000,-0.47708430886268616,0.9793257117271423,0.0,0.0,0.0,0,4
205284000000,-0.5012416839599609,0.9751587510108948,0.0,0.0,0.0,0,4
205388000000,-0.5334465503692627,0.9444676041603088,0.0,0.0,0.0,0,4
205476000000,-0.47056248784065247,0.9865578413009644,0.0,0.0,0.0,0,4
205568000000,-0.5003822445869446,0.9825394749641418,0.0,0.0,0.0,0,4
205676000000,-0.5710033178329468,0.9727334976196289,0.0,0.0,0.0,0,4
205792000000,-0.5905550718307495,0.9595673084259033,0.0,0.0,0.0,0,4
205916000000,-0.6304847002029419,0.9595186114311218,0.0,0.0,0.0,0,4
205976000000,-0.5903372764587402,0.9626203775405884,0.0,0.0,0.0,0,4
206068000000,-0.6225528120994568,0.9420725703239441,0.0,0.0,0.0,0,4
206192000000,-0.6402990818023682,0.9049551486968994,0.0,0.0,0.0,0,4
206324000000,-0.6417175531387329,0.8875875473022461,0.0,0.0,0.0,0,4
206380000000,-0.5897475481033325,0.8775765895843506,0.0,0.0,0.0,0,4
206508000000,-0.4742285907268524,0.9140047430992126,0.0,0.0,0.0,0,4
206608000000,-0.3671083152294159,0.9606992602348328,0.0,0.0,0.0,0,4
206732000000,-0.2371438592672348,0.9755853414535522,0.0,0.0,0.0,0,4
206792000000,-0.12321662157773972,0.8861641883850098,0.0,0.0,0.0,0,4
206920000000,-0.1284285932779312,0.9422944188117981,0.0,0.0,0.0,0,4
206988000000,-0.11211339384317398,0.9387982487678528,0.0,0.0,0.0,0,4
207112000000,-0.12416892498731613,0.9550480842590332,0.0,0.0,0.0,0,4
207240000000,-0.2253909558057785,0.9627028107643127,0.0,0.0,0.0,0,4
207264000000,-0.2190655767917633,0.8585778474807739,0.0,0.0,0.0,0,4
207368000000,-0.3023770749568939,0.8540502190589905,0.0,0.0,0.0,0,4
207488000000,-0.29116275906562805,0.8328338861465454,0.0,0.0,0.0,0,4
207512000000,-0.33311936259269714,0.8806161284446716,0.0,0.0,0.0,0,4
207616000000,-0.3644484877586365,0.7602018713951111,0.0,0.0,0.0,0,4
207736000000,-0.3995676636695862,0.617103636264801,0.0,0.0,0.0,0,4
207792000000,-0.4511866271495819,0.5681895613670349,0.0,0.0,0.0,0,4
207916000000,-0.48550015687942505,0.49064022302627563,0.0,0.0,0.0,0,4
208016000000,-0.4557678997516632,0.4465615451335907,0.0,0.0,0.0,0,4
208112000000,-0.36513638496398926,0.3342890441417694,0.0,0.0,0.0,0,4
208236000000,-0.3784146308898926,0.33710360527038574,0.0,0.0,0.0,0,4
208328000000,-0.3315946161746979,0.31594398617744446,0.0,0.0,0.0,0,4
208428000000,-0.2618197798728943,0.2884156107902527,0.0,0.0,0.0,0,4
208552000000,-0.22802966833114624,0.319882333278656,0.0,0.0,0.0,0,4
208572000000,-0.2192019522190094,0.3286241888999939,0.0,0.0,0.0,0,4
208680000000,-0.22047153115272522,0.401355504989624,0.0,0.0,0.0,0,4
208804000000,-0.16816526651382446,0.2792614698410034,0.0,0.0,0.0,0,4
208864000000,-0.049297139048576355,0.2663014233112335,0.0,0.0,0.0,0,4
208964000000,0.0837245061993599,0.19656221568584442,0.0,0.0,0.0,0,4
209088000000,0.21686966717243195,0.2936243414878845,0.0,0.0,0.0,0,4
209188000000,0.3367577791213989,0.09268844872713089,0.0,0.0,0.0,0,4
209272000000,0.26346737146377563,0.172853022813797,0.0,0.0,0.0,0,4
209364000000,0.15259957313537598,0.0,0.027638494968414307,0.0,0.0,0,4
209468000000,0.07171609252691269,0.0,0.10749390721321106,0.0,0.0,0,4
209588000000,-0.02429315447807312,0.0,0.08516282588243484,0.0,0.0,0,4
209712000000,-0.07467309385538101,0.0,0.1112680435180664,0.0,0.0,0,4
209772000000,-0.10621608048677444,0.0,0.2916211783885956,0.0,0.0,0,4
209896000000,-0.18558354675769806,0.0,0.33155205845832825,0.0,0.0,0,4
209988000000,-0.21989776194095612,0.0,0.3900609016418457,0.0,0.0,0,4
210088000000,-0.24322472512722015,0.0,0.4022420644760132,0.0,0.0,0,4
210216000000,-0.2778739333152771,0.0,0.36930519342422485,0.0,0.0,0,4
210340000000,-0.31364935636520386,0.0,0.38743656873703003,0.0,0.0,0,4
210400000000,-0.34209221601486206,0.0,0.36919665336608887,0.0,0.0,0,4
210460000000,-0.31930944323539734,0.0,0.350517600774765,0.0,0.0,0,4
210520000000,-0.322528600692749,0.0,0.3423762917518616,0.0,0.0,0,4
210620000000,-0.33070966601371765,0.0,0.2775527238845825,0.0,0.0,0,4
210744000000,-0.3474637567996979,0.0,0.22400958836078644,0.0,0.0,0,4
210768000000,-0.34416520595550537,0.0,0.2456807792186737,0.0,0.0,0,4
210892000000,-0.3369937241077423,0.0,0.23768764734268188,0.0,0.0,0,4
210992000000,-0.33251044154167175,0.0,0.22999320924282074,0.0,0.0,0,4
211056000000,-0.33128902316093445,0.0,0.2412956953048706,0.0,0.0,0,4
211176000000,-0.3126427233219147,0.0,0.23445992171764374,0.0,0.0,0,4
211268000000,-0.30349409580230713,0.0,0.23510053753852844,0.0,0.0,0,4
211372000000,-0.29464566707611084,0.0,0.2523511052131653,0.0,0.0,0,4
211520000000,-0.28634047508239746,0.0,0.2592049539089203,0.0,0.0,0,4
211620000000,-0.2774263620376587,0.0,0.25121209025382996,0.0,0.0,0,4
211676000000,-0.25869813561439514,0.0,0.2612956464290619,0.0,0.0,0,4
211768000000,-0.24261216819286346,0.0,0.25974905490875244,0.0,0.0,0,4
211868000000,-0.22937452793121338,0.0,0.25756579637527466,0.0,0.0,0,4
211992000000,-0.2126552164554596,0.0,0.2692759335041046,0.0,0.0,0,4
212116000000,-0.20202764868736267,0.0,0.2105574756860733,0.0,0.0,0,4
212144000000,-0.0,0.0,0.5,0.0,0.0,0,4
212212000000,-0.0,0.0,0.5,0.0,0.0,0,4
212244000000,-0.0,0.0,0.5,0.0,0.0,0,4
212300000000,-0.0,0.0,0.5,0.0,0.0,0,4
212364000000,-0.0,0.0,0.5,0.0,0.0,0,4
212388000000,-0.0,0.0,0.5,0.0,0.0,0,4
212452000000,-0.0,0.0,0.5,0.0,0.0,0,4
212488000000,-0.0,0.0,0.5,0.0,0.0,0,4
212512000000,-0.0,0.0,0.5,0.0,0.0,0,4
212544000000,-0.0,0.0,0.5,0.0,0.0,0,4
212608000000,-0.0,0.0,0.5,0.0,0.0,0,4
215064000000,0.027557596564292908,0.019830644130706787,0.0,0.0,0.0,0,2
215188000000,0.007968369871377945,0.001685306429862976,0.0,0.0,0.0,0,2
215304000000,0.07976305484771729,0.15867890417575836,0.0,0.0,0.0,0,2
215320000000,0.10622821003198624,0.13379672169685364,0.0,0.0,0.0,0,2
215468000000,0.23830950260162354,0.34174031019210815,0.0,0.0,0.0,0,2
215480000000,0.34569594264030457,0.42653578519821167,0.0,0.0,0.0,0,2
215596000000,0.4763256013393402,0.1652504801750183,0.0,0.0,0.0,0,2
215720000000,0.35087719559669495,0.36506086587905884,0.0,0.0,0.0,0,2
215776000000,0.22628307342529297,0.2619894742965698,0.0,0.0,0.0,0,2
215876000000,0.3482097387313843,0.16727498173713684,0.0,0.0,0.0,0,2
215988000000,0.43721911311149597,0.42885375022888184,0.0,0.0,0.0,0,2
216096000000,0.5421546101570129,0.2963442802429199,0.0,0.0,0.0,0,2
216220000000,0.6729264855384827,0.16640321910381317,0.0,0.0,0.0,0,2
216280000000,0.6973323225975037,0.39597657322883606,0.0,0.0,0.0,0,2
216404000000,0.8272890448570251,0.6604353189468384,0.0,0.0,0.0,0,2
216528000000,0.7315401434898376,0.4308938980102539,0.0,0.0,0.0,0,2
216596000000,0.8061811327934265,0.5599626302719116,0.0,0.0,0.0,0,2
216720000000,0.7676636576652527,0.5366353988647461,0.0,0.0,0.0,0,2
216844000000,0.8210991621017456,0.6730019450187683,0.0,0.0,0.0,0,2
216900000000,0.8541149497032166,0.4723100960254669,0.0,0.0,0.0,0,2
216992000000,0.8131109476089478,0.7139360904693604,0.0,0.0,0.0,0,2
217092000000,0.9077329039573669,0.8215100169181824,0.0,0.0,0.0,0,2
217252000000,0.8201326131820679,0.9000979065895081,0.0,0.0,0.0,0,2
217344000000,0.839392900466919,0.7806112766265869,0.0,0.0,0.0,0,2
217404000000,0.9595656991004944,0.6745737195014954,0.0,0.0,0.0,0,2
217504000000,0.9779342412948608,0.6463707685470581,0.0,0.0,0.0,0,2
217628000000,0.9991697669029236,0.5673782825469971,0.0,0.0,0.0,0,2
217752000000,0.998892605304718,0.5798169374465942,0.0,0.0,0.0,0,2
217776000000,0.990752100944519,0.6149342656135559,0.0,0.0,0.0,0,2
217904000000,0.8764787316322327,0.4103422164916992,0.0,0.0,0.0,0,2
218004000000,0.9594763517379761,0.5579077005386353,0.0,0.0,0.0,0,2
218064000000,0.9801669120788574,0.5262179374694824,0.0,0.0,0.0,0,2
218152000000,0.84774249792099,0.32097846269607544,0.0,0.0,0.0,0,2
218284000000,0.980137825012207,0.5858390927314758,0.0,0.0,0.0,0,2
218408000000,0.9947761297225952,0.35667020082473755,0.0,0.0,0.0,0,2
218464000000,0.9680418968200684,0.5446738004684448,0.0,0.0,0.0,0,2
218592000000,0.870279848575592,0.37806016206741333,0.0,0.0,0.0,0,2
218684000000,0.9270461201667786,0.39323994517326355,0.0,0.0,0.0,0,2
218716000000,0.9975080490112305,0.19691979885101318,0.0,0.0,0.0,0,2
218792000000,0.9875788688659668,0.0,0.012257090769708157,0.0,0.0,0,2
218936000000,0.9934649467468262,0.0,0.12766945362091064,0.0,0.0,0,2
219012000000,0.9180670380592346,0.0,0.35959160327911377,0.0,0.0,0,2
219124000000,0.8080728650093079,0.0,0.5973652005195618,0.0,0.0,0,2
219216000000,0.9132903218269348,0.0,0.48542702198028564,0.0,0.0,0,2
219316000000,0.9999998211860657,0.0,0.40711984038352966,0.0,0.0,0,2
219408000000,0.9207102060317993,0.0,0.1744554191827774,0.0,0.0,0,2
219536000000,0.9510607123374939,0.07022124528884888,0.0,0.0,0.0,0,2
219628000000,0.8241798877716064,0.33687177300453186,0.0,0.0,0.0,0,2
219752000000,0.7545576095581055,0.17784342169761658,0.0,0.0,0.0,0,2
219852000000,0.8826862573623657,0.2519291937351227,0.0,0.0,0.0,0,2
219880000000,0.7515445947647095,0.10849490761756897,0.0,0.0,0.0,0,2
219976000000,0.7023277878761292,0.0,0.07071691751480103,0.0,0.0,0,2
220100000000,0.5699157118797302,0.0,0.26356738805770874,0.0,0.0,0,2
220160000000,0.6421069502830505,0.0,0.5204811096191406,0.0,0.0,0,2
220252000000,0.5424373745918274,0.0,0.7827872633934021,0.0,0.0,0,2
220376000000,0.4156566262245178,0.0,0.9097763895988464,0.0,0.0,0,2
220476000000,0.28244680166244507,0.9309995770454407,0.0,0.0,0.0,0,4
220600000000,0.1544712483882904,0.8768096566200256,0.0,0.0,0.0,0,4
220696000000,0.021408792585134506,0.9410996437072754,0.0,0.0,0.0,0,4
220728000000,-0.11075586080551147,0.927680492401123,0.0,0.0,0.0,0,4
220816000000,-0.2440415620803833,0.9982476234436035,0.0,0.0,0.0,0,4
220908000000,-0.37735000252723694,0.9484014511108398,0.0,0.0,0.0,0,4
221008000000,-0.5041763782501221,0.9958108067512512,0.0,0.0,0.0,0,4
221136000000,-0.5658112168312073,0.9822247624397278,0.0,0.0,0.0,0,4
221260000000,-0.6181421279907227,0.9574714303016663,0.0,0.0,0.0,0,4
221288000000,-0.6792739629745483,0.9731277823448181,0.0,0.0,0.0,0,4
221388000000,-0.7946277260780334,0.9146063327789307,0.0,0.0,0.0,0,4
221512000000,-0.8703992962837219,0.9748677015304565,0.0,0.0,0.0,0,4
221568000000,-0.9386060237884521,0.9804053902626038,0.0,0.0,0.0,0,4
221692000000,-0.9894413948059082,0.9604073762893677,0.0,0.0,0.0,0,4
221788000000,-0.9751891493797302,0.9898454546928406,0.0,0.0,0.0,0,4
221888000000,-0.95655757188797,0.8714177012443542,0.0,0.0,0.0,0,4
222012000000,-0.9754656553268433,0.742999792098999,0.0,0.0,0.0,0,4
222104000000,-0.9869043827056885,0.8720353841781616,0.0,0.0,0.0,0,4
222196000000,-0.9918427467346191,0.666813313961029,0.0,0.0,0.0,0,4
222288000000,-0.9740644097328186,0.644225537776947,0.0,0.0,0.0,0,4
222420000000,-0.9910808801651001,0.6601347327232361,0.0,0.0,0.0,0,4
222484000000,-0.9663061499595642,0.5745505094528198,0.0,0.0,0.0,0,4
222636000000,-0.9022682905197144,0.4822694659233093,0.0,0.0,0.0,0,4
222696000000,-0.922230064868927,0.644023060798645,0.0,0.0,0.0,0,4
222796000000,-0.8176295757293701,0.8252789974212646,0.0,0.0,0.0,0,4
222920000000,-0.7386710047721863,0.8317355513572693,0.0,0.0,0.0,0,4
223048000000,-0.6463416218757629,0.8656165599822998,0.0,0.0,0.0,0,4
223072000000,-0.5938635468482971,0.877469003200531,0.0,0.0,0.0,0,4
223204000000,-0.5054524540901184,0.8318682909011841,0.0,0.0,0.0,0,4
223256000000,-0.5392295122146606,0.8493406176567078,0.0,0.0,0.0,0,4
223292000000,-0.5613362789154053,0.8136702179908752,0.0,0.0,0.0,0,4
223380000000,-0.5371901392936707,0.7338535785675049,0.0,0.0,0.0,0,4
223472000000,-0.5180401802062988,0.7705342769622803,0.0,0.0,0.0,0,4
223600000000,-0.49968746304512024,0.824371337890625,0.0,0.0,0.0,0,4
223696000000,-0.454805850982666,0.7903120517730713,0.0,0.0,0.0,0,4
223788000000,-0.38043147325515747,0.8028459548950195,0.0,0.0,0.0,0,4
223880000000,-0.29874253273010254,0.8058187365531921,0.0,0.0,0.0,0,4
223976000000,-0.22402754426002502,0.7921338677406311,0.0,0.0,0.0,0,4
224100000000,-0.17929063737392426,0.7433064579963684,0.0,0.0,0.0,0,4
224228000000,-0.18927857279777527,0.7613276243209839,0.0,0.0,0.0,0,4
224284000000,-0.1420775055885315,0.7287428379058838,0.0,0.0,0.0,0,4
224412000000,-0.010261133313179016,0.7892806529998779,0.0,0.0,0.0,0,4
224504000000,0.12287373840808868,0.6456209421157837,0.0,0.0,0.0,0,4
224604000000,0.2561759054660797,0.6955146193504333,0.0,0.0,0.0,0,4
224760000000,0.37089675664901733,0.6123815178871155,0.0,0.0,0.0,0,4
224788000000,0.47300758957862854,0.7149298191070557,0.0,0.0,0.0,0,4
224912000000,0.3459148406982422,0.641423761844635,0.0,0.0,0.0,0,4
224976000000,0.22213469445705414,0.4951411187648773,0.0,0.0,0.0,0,4
225100000000,0.08882872015237808,0.3844612240791321,0.0,0.0,0.0,0,4
225200000000,-0.04234633594751358,0.12755773961544037,0.0,0.0,0.0,0,4
225328000000,-0.0859760195016861,0.0,0.13106928765773773,0.0,0.0,0,4
225384000000,-0.20185504853725433,0.0,0.38254514336586,0.0,0.0,0,4
225476000000,-0.3103301227092743,0.0,0.5931795835494995,0.0,0.0,0,4
225600000000,-0.4068164825439453,0.0,0.6097715497016907,0.0,0.0,0,4
225736000000,-0.4299127757549286,0.0,0.5360127687454224,0.0,0.0,0,4
225788000000,-0.4253309667110443,0.0,0.4712396264076233,0.0,0.0,0,4
225888000000,-0.4490046501159668,0.0,0.3992806077003479,0.0,0.0,0,4
225980000000,-0.46906495094299316,0.0,0.3867413401603699,0.0,0.0,0,4
226104000000,-0.4810788631439209,0.0,0.31826648116111755,0.0,0.0,0,4
226196000000,-0.5125035047531128,0.0,0.18162013590335846,0.0,0.0,0,4
226320000000,-0.4935721755027771,0.0,0.13103297352790833,0.0,0.0,0,4
226416000000,-0.48150932788848877,0.0,0.10783562064170837,0.0,0.0,0,4
226508000000,-0.4619712829589844,0.0,0.12304368615150452,0.0,0.0,0,4
226600000000,-0.42857858538627625,0.0,0.15096864104270935,0.0,0.0,0,4
226720000000,-0.43540453910827637,0.0,0.15115554630756378,0.0,0.0,0,4
226840000000,-0.41915491223335266,0.0,0.16864806413650513,0.0,0.0,0,4
226952000000,-0.4051840901374817,0.0,0.18094144761562347,0.0,0.0,0,4
226976000000,-0.3926509618759155,0.0,0.2035456895828247,0.0,0.0,0,4
227076000000,-0.3725675940513611,0.0,0.22691792249679565,0.0,0.0,0,4
227200000000,-0.3548973500728607,0.0,0.2432570904493332,0.0,0.0,0,4
227260000000,-0.3367069363594055,0.0,0.2509620487689972,0.0,0.0,0,4
227360000000,-0.309057354927063,0.0,0.26765215396881104,0.0,0.0,0,4
227388000000,-0.28989744186401367,0.0,0.2801811993122101,0.0,0.0,0,4
227512000000,-0.2669965922832489,0.0,0.27846089005470276,0.0,0.0,0,4
227612000000,-0.2579626142978668,0.0,0.28662365674972534,0.0,0.0,0,4
227724000000,-0.23516280949115753,0.0,0.2800050973892212,0.0,0.0,0,4
227796000000,-0.21797870099544525,0.0,0.25526392459869385,0.0,0.0,0,4
227892000000,-0.19834843277931213,0.0,0.21271097660064697,0.0,0.0,0,4
228020000000,-0.0,0.0,0.5,0.0,0.0,0,4
228076000000,-0.0,0.0,0.5,0.0,0.0,0,4
228140000000,-0.0,0.0,0.5,0.0,0.0,0,4
228168000000,-0.0,0.0,0.5,0.0,0.0,0,4
228200000000,-0.0,0.0,0.5,0.0,0.0,0,4
228268000000,-0.0,0.0,0.5,0.0,0.0,0,4
228292000000,-0.0,0.0,0.5,0.0,0.0,0,4
228324000000,-0.0,0.0,0.5,0.0,0.0,0,4
228392000000,-0.0,0.0,0.5,0.0,0.0,0,4
228416000000,-0.0,0.0,0.5,0.0,0.0,0,4
228448000000,-0.0,0.0,0.5,0.0,0.0,0,2
231252000000,-0.016401980072259903,0.26644760370254517,0.0,0.0,0.0,0,4
231376000000,-0.11575400829315186,0.5312806963920593,0.0,0.0,0.0,0,4
231472000000,-0.1565088927745819,0.7724314332008362,0.0,0.0,0.0,0,4
231560000000,-0.17531289160251617,0.947801411151886,0.0,0.0,0.0,0,4
231652000000,-0.18503554165363312,0.9367654919624329,0.0,0.0,0.0,0,4
231756000000,-0.18977698683738708,0.9373134970664978,0.0,0.0,0.0,0,4
231876000000,-0.16344180703163147,0.9591705203056335,0.0,0.0,0.0,0,4
232000000000,-0.09346511214971542,0.9488580226898193,0.0,0.0,0.0,0,4
232060000000,-0.015772469341754913,0.907956063747406,0.0,0.0,0.0,0,4
232192000000,0.02832380309700966,0.8324538469314575,0.0,0.0,0.0,0,4
232280000000,0.0898340567946434,0.8627973198890686,0.0,0.0,0.0,0,4
232380000000,0.09807378798723221,0.8361734747886658,0.0,0.0,0.0,0,4
232504000000,0.14487767219543457,0.8077871203422546,0.0,0.0,0.0,0,4
232564000000,0.1396166980266571,0.7165520191192627,0.0,0.0,0.0,0,4
232688000000,0.14896135032176971,0.5451878905296326,0.0,0.0,0.0,0,4
232788000000,0.22100624442100525,0.4105011224746704,0.0,0.0,0.0,0,4
232880000000,0.25104379653930664,0.36977824568748474,0.0,0.0,0.0,0,4
233008000000,0.2873610556125641,0.21021176874637604,0.0,0.0,0.0,0,4
233104000000,0.2953362762928009,0.047760870307683945,0.0,0.0,0.0,0,4
233228000000,0.301664263010025,0.0,0.052498381584882736,0.0,0.0,0,4
233296000000,0.3222010135650635,0.0,0.11999224126338959,0.0,0.0,0,4
233388000000,0.31888020038604736,0.0,0.1659257560968399,0.0,0.0,0,4
233492000000,0.3241993486881256,0.0,0.19430607557296753,0.0,0.0,0,4
233604000000,0.30678120255470276,0.0,0.3034694790840149,0.0,0.0,0,4
233728000000,0.3234950602054596,0.0,0.37886831164360046,0.0,0.0,0,4
233788000000,0.32182103395462036,0.0,0.42935702204704285,0.0,0.0,0,4
233912000000,0.33636701107025146,0.0,0.4355601966381073,0.0,0.0,0,4
234036000000,0.34768566489219666,0.0,0.4640432596206665,0.0,0.0,0,4
234104000000,0.3640781342983246,0.0,0.4759453237056732,0.0,0.0,0,4
234232000000,0.34934717416763306,0.0,0.4577348828315735,0.0,0.0,0,4
234300000000,0.34451380372047424,0.0,0.4214344620704651,0.0,0.0,0,4
234424000000,-0.0,0.0,0.5,0.0,0.0,0,4
234476000000,-0.0,0.0,0.5,0.0,0.0,0,4
234500000000,-0.0,0.0,0.5,0.0,0.0,0,4
234532000000,-0.0,0.0,0.5,0.0,0.0,0,4
234600000000,-0.0,0.0,0.5,0.0,0.0,0,4
234624000000,-0.0,0.0,0.5,0.0,0.0,0,4
234656000000,-0.0,0.0,0.5,0.0,0.0,0,4
234700000000,-0.0,0.0,0.5,0.0,0.0,0,4
234724000000,-0.0,0.0,0.5,0.0,0.0,0,4
234752000000,-0.0,0.0,0.5,0.0,0.0,0,4
234784000000,-0.0,0.0,0.5,0.0,0.0,0,4
234816000000,-0.0,0.0,0.5,0.0,0.0,0,4
234868000000,-0.0,0.0,0.5,0.0,0.0,0,4
234904000000,-0.0,0.0,0.5,0.0,0.0,0,4
236944000000,0.1276782751083374,0.25310736894607544,0.0,0.0,0.0,0,4
237044000000,0.24437503516674042,0.48186352849006653,0.0,0.0,0.0,0,4
237168000000,0.36520782113075256,0.7082721590995789,0.0,0.0,0.0,0,4
237292000000,0.491103857755661,0.9414568543434143,0.0,0.0,0.0,0,4
237352000000,0.45752376317977905,0.9503369331359863,0.0,0.0,0.0,0,4
237476000000,0.57325279712677,0.9105543494224548,0.0,0.0,0.0,0,4
237512000000,0.6362079977989197,0.9446014165878296,0.0,0.0,0.0,0,4
237600000000,0.673862636089325,0.8718084096908569,0.0,0.0,0.0,0,4
237696000000,0.6839778423309326,0.8903563618659973,0.0,0.0,0.0,0,4
237808000000,0.7073753476142883,0.8858520984649658,0.0,0.0,0.0,0,4
237888000000,0.7886450886726379,0.8722369074821472,0.0,0.0,0.0,0,4
238020000000,0.830479621887207,0.8528713583946228,0.0,0.0,0.0,0,4
238100000000,0.8529139757156372,0.8927916288375854,0.0,0.0,0.0,0,4
238200000000,0.8831565380096436,0.7867905497550964,0.0,0.0,0.0,0,4
238328000000,0.8474281430244446,0.8458996415138245,0.0,0.0,0.0,0,4
238424000000,0.7232130765914917,0.8546881675720215,0.0,0.0,0.0,0,4
238548000000,0.5935006141662598,0.984926164150238,0.0,0.0,0.0,0,4
238580000000,0.5987809300422668,0.9237681031227112,0.0,0.0,0.0,0,4
238672000000,0.6018151640892029,0.9465891122817993,0.0,0.0,0.0,0,4
238764000000,0.5765305161476135,0.8254792094230652,0.0,0.0,0.0,0,4
238796000000,0.48690271377563477,0.9339883327484131,0.0,0.0,0.0,0,4
238872000000,0.4625520706176758,0.9298603534698486,0.0,0.0,0.0,0,4
238988000000,0.3763778805732727,0.816998302936554,0.0,0.0,0.0,0,4
239112000000,0.28259286284446716,0.8814955949783325,0.0,0.0,0.0,0,4
239172000000,0.1569162905216217,0.7036949992179871,0.0,0.0,0.0,0,4
239268000000,0.033148035407066345,0.9563612341880798,0.0,0.0,0.0,0,4
239392000000,0.13264697790145874,0.9092409610748291,0.0,0.0,0.0,0,4
239524000000,0.04096261039376259,0.7289566993713379,0.0,0.0,0.0,0,4
239584000000,0.08743423223495483,0.502168595790863,0.0,0.0,0.0,0,4
239680000000,0.149495929479599,0.3016902506351471,0.0,0.0,0.0,0,4
239780000000,0.14932572841644287,0.4852643609046936,0.0,0.0,0.0,0,4
239904000000,0.06941608339548111,0.6660022139549255,0.0,0.0,0.0,0,4
240028000000,0.004794463515281677,0.5873615145683289,0.0,0.0,0.0,0,4
240096000000,-0.02134907804429531,0.5892701745033264,0.0,0.0,0.0,0,4
240180000000,-0.14489035308361053,0.5805194973945618,0.0,0.0,0.0,0,4
240280000000,-0.20310078561306,0.5805959701538086,0.0,0.0,0.0,0,4
240404000000,-0.24427472054958344,0.5100123882293701,0.0,0.0,0.0,0,4
240500000000,-0.2514486312866211,0.5004035830497742,0.0,0.0,0.0,0,4
240592000000,-0.2337568700313568,0.4756486117839813,0.0,0.0,0.0,0,4
240716000000,-0.19522668421268463,0.4990703761577606,0.0,0.0,0.0,0,4
240816000000,-0.14838211238384247,0.3945588171482086,0.0,0.0,0.0,0,4
240904000000,-0.06340286135673523,0.3421972095966339,0.0,0.0,0.0,0,4
240996000000,-0.03416640684008598,0.24186129868030548,0.0,0.0,0.0,0,4
241096000000,-0.014926531352102757,0.25023412704467773,0.0,0.0,0.0,0,4
241224000000,-0.025343839079141617,0.19707582890987396,0.0,0.0,0.0,0,4
241316000000,0.02400132641196251,0.17675912380218506,0.0,0.0,0.0,0,4
241400000000,0.021030643954873085,0.15521110594272614,0.0,0.0,0.0,0,4
241528000000,0.02970711514353752,0.1504049152135849,0.0,0.0,0.0,0,4
241660000000,0.03284604847431183,0.12306397408246994,0.0,0.0,0.0,0,4
241728000000,0.023533521220088005,0.13915905356407166,0.0,0.0,0.0,0,4
241808000000,0.0470522940158844,0.16259939968585968,0.0,0.0,0.0,0,4
241908000000,0.07623438537120819,0.1367340236902237,0.0,0.0,0.0,0,4
242068000000,0.10997416824102402,0.07111644744873047,0.0,0.0,0.0,0,4
242156000000,0.047550905495882034,0.03539782389998436,0.0,0.0,0.0,0,4
242192000000,0.0651923418045044,0.0,0.009738851338624954,0.0,0.0,0,4
242296000000,0.05552856996655464,0.0,0.04716752469539642,0.0,0.0,0,4
242372000000,0.04519427567720413,0.0,0.13348665833473206,0.0,0.0,0,4
242464000000,0.01680971495807171,0.0,0.21337363123893738,0.0,0.0,0,4
242588000000,0.03075508028268814,0.0,0.23437614738941193,0.0,0.0,0,4
242688000000,0.015369497239589691,0.0,0.2261074185371399,0.0,0.0,0,4
242784000000,-0.0090453727170825,0.0,0.25554537773132324,0.0,0.0,0,4
242904000000,-0.03699128329753876,0.0,0.34025058150291443,0.0,0.0,0,4
242996000000,-0.04273264855146408,0.0,0.3852153420448303,0.0,0.0,0,4
243096000000,-0.03999105095863342,0.0,0.36914175748825073,0.0,0.0,0,4
243220000000,-0.025752916932106018,0.0,0.3048563599586487,0.0,0.0,0,4
243316000000,-0.038012273609638214,0.0,0.272525817155838,0.0,0.0,0,4
243404000000,-0.03798944130539894,0.0,0.28499919176101685,0.0,0.0,0,4
243496000000,-0.04173282906413078,0.0,0.25291210412979126,0.0,0.0,0,4
243596000000,-0.03502153605222702,0.0,0.2387687861919403,0.0,0.0,0,4
243720000000,-0.038922470062971115,0.0,0.202086940407753,0.0,0.0,0,4
243848000000,-0.039059098809957504,0.0,0.21141304075717926,0.0,0.0,0,4
243872000000,-0.05136293172836304,0.0,0.2219746708869934,0.0,0.0,0,4
243972000000,-0.032140251249074936,0.0,0.21922184526920319,0.0,0.0,0,4
244096000000,-0.02465730905532837,0.0,0.23074813187122345,0.0,0.0,0,4
244164000000,-0.018121520057320595,0.0,0.2531556785106659,0.0,0.0,0,4
244292000000,-0.019193243235349655,0.0,0.25875598192214966,0.0,0.0,0,4
244372000000,-0.02176753059029579,0.0,0.2739167809486389,0.0,0.0,0,4
244472000000,-0.026399390771985054,0.0,0.2671505808830261,0.0,0.0,0,4
244600000000,-0.024903547018766403,0.0,0.27489402890205383,0.0,0.0,0,4
244724000000,-0.029826102778315544,0.0,0.273458331823349,0.0,0.0,0,4
244756000000,-0.0,0.0,0.5,0.0,0.0,0,4
244788000000,-0.0,0.0,0.5,0.0,0.0,0,4
244816000000,-0.0,0.0,0.5,0.0,0.0,0,4
244876000000,-0.0,0.0,0.5,0.0,0.0,0,4
244900000000,-0.0,0.0,0.5,0.0,0.0,0,4
244936000000,-0.0,0.0,0.5,0.0,0.0,0,4
245000000000,-0.0,0.0,0.5,0.0,0.0,0,4
245028000000,-0.0,0.0,0.5,0.0,0.0,0,4
245060000000,-0.0,0.0,0.5,0.0,0.0,0,4
245128000000,-0.0,0.0,0.5,0.0,0.0,0,4
245152000000,-0.0,0.0,0.5,0.0,0.0,0,4
245184000000,-0.0,0.0,0.5,0.0,0.0,0,4
245240000000,-0.0,0.0,0.5,0.0,0.0,0,4
245252000000,-0.0,0.0,0.5,0.0,0.0,0,4
245276000000,-0.0,0.0,0.5,0.0,0.0,0,4
245316000000,-0.0,0.0,0.5,0.0,0.0,0,4
245376000000,-0.0,0.0,0.5,0.0,0.0,0,2
247384000000,0.09189264476299286,0.2666666507720947,0.0,0.0,0.0,0,4
247484000000,-0.0414406955242157,0.5333333015441895,0.0,0.0,0.0,0,4
247608000000,-0.09501322358846664,0.26669421792030334,0.0,0.0,0.0,0,4
247636000000,-0.014917552471160889,0.5276914834976196,0.0,0.0,0.0,0,4
247748000000,0.11692708730697632,0.7938294410705566,0.0,0.0,0.0,0,4
247824000000,0.19337336719036102,0.9875701069831848,0.0,0.0,0.0,0,4
247924000000,0.20767760276794434,0.9377427697181702,0.0,0.0,0.0,0,4
248052000000,0.18503202497959137,0.9863371253013611,0.0,0.0,0.0,0,4
248152000000,0.25975432991981506,0.9831029176712036,0.0,0.0,0.0,0,4
248232000000,0.3366680443286896,0.9848063588142395,0.0,0.0,0.0,0,4
248324000000,0.43480485677719116,0.9976177215576172,0.0,0.0,0.0,0,4
248424000000,0.5219070911407471,0.9769299030303955,0.0,0.0,0.0,0,4
248548000000,0.628498375415802,0.8587893843650818,0.0,0.0,0.0,0,4
248676000000,0.7357581257820129,0.8267688155174255,0.0,0.0,0.0,0,4
248736000000,0.8291139006614685,0.7629711031913757,0.0,0.0,0.0,0,4
248836000000,0.7279970645904541,0.9537559747695923,0.0,0.0,0.0,0,4
248964000000,0.7483612298965454,0.8238943815231323,0.0,0.0,0.0,0,4
248988000000,0.8037583827972412,0.906657338142395,0.0,0.0,0.0,0,4
249088000000,0.8085411787033081,0.877460241317749,0.0,0.0,0.0,0,4
249212000000,0.8241077065467834,0.8749586343765259,0.0,0.0,0.0,0,4
249240000000,0.7939879298210144,0.915742039680481,0.0,0.0,0.0,0,4
249336000000,0.819645881652832,0.8341545462608337,0.0,0.0,0.0,0,4
249464000000,0.7284336090087891,0.8710988759994507,0.0,0.0,0.0,0,4
249492000000,0.6544785499572754,0.7434304356575012,0.0,0.0,0.0,0,4
249616000000,0.6037680506706238,0.6975615620613098,0.0,0.0,0.0,0,4
249712000000,0.5119348764419556,0.7772212624549866,0.0,0.0,0.0,0,4
249804000000,0.4572504460811615,0.7768834233283997,0.0,0.0,0.0,0,4
249872000000,0.4215219020843506,0.786994457244873,0.0,0.0,0.0,0,4
249996000000,0.322941392660141,0.792241632938385,0.0,0.0,0.0,0,4
250120000000,0.29450201988220215,0.6893916726112366,0.0,0.0,0.0,0,4
250216000000,0.22537381947040558,0.6842944025993347,0.0,0.0,0.0,0,4
250276000000,0.197064608335495,0.6445287466049194,0.0,0.0,0.0,0,4
250376000000,0.16518591344356537,0.6648664474487305,0.0,0.0,0.0,0,4
250500000000,0.13847234845161438,0.6135994791984558,0.0,0.0,0.0,0,4
250628000000,0.08330755680799484,0.5436894297599792,0.0,0.0,0.0,0,4
250700000000,0.04927956685423851,0.4101499319076538,0.0,0.0,0.0,0,4
250812000000,0.023996632546186447,0.3766782283782959,0.0,0.0,0.0,0,4
250900000000,0.007858227007091045,0.39603522419929504,0.0,0.0,0.0,0,4
251000000000,-0.01600535959005356,0.31918027997016907,0.0,0.0,0.0,0,4
251128000000,0.0042029935866594315,0.3168178200721741,0.0,0.0,0.0,0,4
251188000000,0.004199644550681114,0.2834005653858185,0.0,0.0,0.0,0,4
251312000000,-0.005273370072245598,0.19261127710342407,0.0,0.0,0.0,0,4
251404000000,-0.004578316584229469,0.1517954021692276,0.0,0.0,0.0,0,4
251536000000,-0.13372166454792023,0.15174464881420135,0.0,0.0,0.0,0,4
251664000000,-0.25332894921302795,0.2230248898267746,0.0,0.0,0.0,0,4
251720000000,-0.28428658843040466,0.18562687933444977,0.0,0.0,0.0,0,4
251812000000,-0.32397976517677307,0.17181387543678284,0.0,0.0,0.0,0,4
251920000000,-0.210044726729393,0.05679380148649216,0.0,0.0,0.0,0,4
252036000000,-0.08637780696153641,0.0,0.0956471860408783,0.0,0.0,0,4
252160000000,0.04307461157441139,0.0,0.09220560640096664,0.0,0.0,0,4
252184000000,0.13029973208904266,0.0,0.13143068552017212,0.0,0.0,0,4
252284000000,0.16995693743228912,0.0,0.24360507726669312,0.0,0.0,0,4
252408000000,0.2294643223285675,0.0,0.3666377067565918,0.0,0.0,0,4
252516000000,0.25460660457611084,0.0,0.4807392656803131,0.0,0.0,0,4
252588000000,0.2939990162849426,0.0,0.5347442030906677,0.0,0.0,0,4
252704000000,0.2784254550933838,0.0,0.5339205265045166,0.0,0.0,0,4
252780000000,0.2750040888786316,0.0,0.4604904055595398,0.0,0.0,0,4
252904000000,0.14216358959674835,0.0,0.30566439032554626,0.0,0.0,0,4
252992000000,0.027514349669218063,0.0,0.09492627531290054,0.0,0.0,0,4
253092000000,-0.06198227405548096,0.0,0.09772684425115585,0.0,0.0,0,4
253220000000,-0.08769553154706955,0.0,0.17517858743667603,0.0,0.0,0,4
253312000000,-0.0858086347579956,0.0,0.15705543756484985,0.0,0.0,0,4
253400000000,-0.07406962662935257,0.0,0.1572239249944687,0.0,0.0,0,4
253492000000,-0.047372281551361084,0.0,0.14630483090877533,0.0,0.0,0,4
253592000000,-0.02769135683774948,0.0,0.14945311844348907,0.0,0.0,0,4
253740000000,0.02083161100745201,0.0,0.1979415863752365,0.0,0.0,0,4
253840000000,0.055682387202978134,0.0,0.2302769124507904,0.0,0.0,0,4
253904000000,0.08785614371299744,0.0,0.2572563588619232,0.0,0.0,0,4
254056000000,0.11871937662363052,0.0,0.24403385818004608,0.0,0.0,0,4
254088000000,0.15263919532299042,0.0,0.27719545364379883,0.0,0.0,0,4
254180000000,0.18711090087890625,0.0,0.3005986213684082,0.0,0.0,0,4
254212000000,0.21234503388404846,0.0,0.30842044949531555,0.0,0.0,0,4
254304000000,0.23994527757167816,0.0,0.3054228723049164,0.0,0.0,0,4
254396000000,0.26170477271080017,0.0,0.3233198821544647,0.0,0.0,0,4
254492000000,0.29262909293174744,0.0,0.3101472854614258,0.0,0.0,0,4
254620000000,0.31377267837524414,0.0,0.26150110363960266,0.0,0.0,0,4
254644000000,-0.0,0.0,0.5,0.0,0.0,0,4
254676000000,-0.0,0.0,0.5,0.0,0.0,0,4
254744000000,-0.0,0.0,0.5,0.0,0.0,0,4
254764000000,-0.0,0.0,0.5,0.0,0.0,0,4
254796000000,-0.0,0.0,0.5,0.0,0.0,0,4
254864000000,-0.0,0.0,0.5,0.0,0.0,0,4
254920000000,-0.0,0.0,0.5,0.0,0.0,0,4
254988000000,-0.0,0.0,0.5,0.0,0.0,0,4
255012000000,-0.0,0.0,0.5,0.0,0.0,0,4
255044000000,-0.0,0.0,0.5,0.0,0.0,0,4
255080000000,-0.0,0.0,0.5,0.0,0.0,0,4
255144000000,-0.0,0.0,0.5,0.0,0.0,0,2
258084000000,-0.13316559791564941,0.2666226029396057,0.0,0.0,0.0,0,2
258208000000,-0.029689300805330276,0.5278894901275635,0.0,0.0,0.0,0,2
258300000000,-0.11375657469034195,0.7061211466789246,0.0,0.0,0.0,0,2
258400000000,-0.1552031934261322,0.8560726642608643,0.0,0.0,0.0,0,2
258524000000,-0.17361895740032196,0.9080745577812195,0.0,0.0,0.0,0,2
258584000000,-0.1109527051448822,0.8812353014945984,0.0,0.0,0.0,0,2
258708000000,-0.12866494059562683,0.9169660210609436,0.0,0.0,0.0,0,2
258800000000,-0.08438802510499954,0.939663290977478,0.0,0.0,0.0,0,2
258936000000,-0.10743294656276703,0.9195486307144165,0.0,0.0,0.0,0,2
259024000000,-0.11173813045024872,0.9096304774284363,0.0,0.0,0.0,0,2
259096000000,-0.1103753000497818,0.9088601469993591,0.0,0.0,0.0,0,2
259216000000,-0.1068822517991066,0.9290603399276733,0.0,0.0,0.0,0,2
259244000000,-0.10989133268594742,0.9067920446395874,0.0,0.0,0.0,0,2
259344000000,-0.12339864671230316,0.9069947004318237,0.0,0.0,0.0,0,2
259436000000,-0.2562389075756073,0.9962253570556641,0.0,0.0,0.0,0,2
259528000000,-0.37668588757514954,0.9458233118057251,0.0,0.0,0.0,0,2
259624000000,-0.4752001166343689,0.8803839087486267,0.0,0.0,0.0,0,2
259752000000,-0.5512863993644714,0.9575638175010681,0.0,0.0,0.0,0,2
259848000000,-0.5587633848190308,0.971305251121521,0.0,0.0,0.0,0,2
259932000000,-0.5670338273048401,0.9826831817626953,0.0,0.0,0.0,0,2
260092000000,-0.54104083776474,0.9527889490127563,0.0,0.0,0.0,0,2
260148000000,-0.45358559489250183,0.9541646242141724,0.0,0.0,0.0,0,2
260248000000,-0.3977091610431671,0.9604986906051636,0.0,0.0,0.0,0,2
260340000000,-0.34860196709632874,0.9615201354026794,0.0,0.0,0.0,0,2
260464000000,-0.28662198781967163,0.9481451511383057,0.0,0.0,0.0,0,2
260556000000,-0.19233788549900055,0.9729406237602234,0.0,0.0,0.0,0,2
260656000000,-0.11400363594293594,0.9412469863891602,0.0,0.0,0.0,0,2
260780000000,-0.05907605588436127,0.9310015439987183,0.0,0.0,0.0,0,2
260840000000,-0.043924130499362946,0.9303737878799438,0.0,0.0,0.0,0,2
260964000000,-0.005793113261461258,0.9065014123916626,0.0,0.0,0.0,0,2
261056000000,0.04657863453030586,0.9326928853988647,0.0,0.0,0.0,0,2
261156000000,0.11028113216161728,0.927324652671814,0.0,0.0,0.0,0,2
261248000000,0.16306383907794952,0.9134849309921265,0.0,0.0,0.0,0,2
261336000000,0.1868855506181717,0.9217525720596313,0.0,0.0,0.0,0,2
261436000000,0.24486158788204193,0.8737484812736511,0.0,0.0,0.0,0,2
261560000000,0.26170116662979126,0.8641636967658997,0.0,0.0,0.0,0,2
261688000000,0.2482536882162094,0.874752938747406,0.0,0.0,0.0,0,2
261692000000,0.26061591506004333,0.8675654530525208,0.0,0.0,0.0,0,2
261812000000,0.25700485706329346,0.8864893317222595,0.0,0.0,0.0,0,2
261936000000,0.2967927157878876,0.8725758194923401,0.0,0.0,0.0,0,2
262000000000,0.31690713763237,0.8954828381538391,0.0,0.0,0.0,0,2
262116000000,0.25703078508377075,0.8814229369163513,0.0,0.0,0.0,0,2
262208000000,0.16066892445087433,0.8444125056266785,0.0,0.0,0.0,0,2
262308000000,0.0797797441482544,0.900728702545166,0.0,0.0,0.0,0,2
262432000000,0.038766562938690186,0.8884146809577942,0.0,0.0,0.0,0,2
262556000000,0.03369986638426781,0.8719430565834045,0.0,0.0,0.0,0,2
262616000000,0.09682901948690414,0.8894500136375427,0.0,0.0,0.0,0,2
262708000000,0.11440842598676682,0.8694208860397339,0.0,0.0,0.0,0,2
262808000000,0.03493748605251312,0.8211314678192139,0.0,0.0,0.0,0,2
262932000000,-0.07515212893486023,0.9649924039840698,0.0,0.0,0.0,0,2
263056000000,-0.17155253887176514,0.9879168272018433,0.0,0.0,0.0,0,2
263124000000,-0.2735753059387207,0.9709718823432922,0.0,0.0,0.0,0,2
263232000000,-0.20349442958831787,0.9186041355133057,0.0,0.0,0.0,0,2
263324000000,-0.07762251049280167,0.9877161979675293,0.0,0.0,0.0,0,2
263424000000,0.0557062029838562,0.9938671588897705,0.0,0.0,0.0,0,2
263548000000,0.17558857798576355,0.8097332119941711,0.0,0.0,0.0,0,2
263640000000,0.3089078366756439,0.5461462736129761,0.0,0.0,0.0,0,2
263732000000,0.4416658282279968,0.6307233572006226,0.0,0.0,0.0,0,2
263832000000,0.5748959183692932,0.5648001432418823,0.0,0.0,0.0,0,2
263956000000,0.6568607091903687,0.6641277074813843,0.0,0.0,0.0,0,2
264052000000,0.5717120170593262,0.578903317451477,0.0,0.0,0.0,0,2
264136000000,0.4736773371696472,0.7818173170089722,0.0,0.0,0.0,0,2
264236000000,0.34769684076309204,0.9579738974571228,0.0,0.0,0.0,0,2
264360000000,0.47827500104904175,0.992940366268158,0.0,0.0,0.0,0,2
264464000000,0.3632163405418396,0.9107792377471924,0.0,0.0,0.0,0,2
264544000000,0.22990013659000397,0.9981017112731934,0.0,0.0,0.0,0,2
264636000000,0.09673615545034409,0.9018434882164001,0.0,0.0,0.0,0,2
264736000000,-0.03659716248512268,0.7896728515625,0.0,0.0,0.0,0,2
264764000000,-0.16807925701141357,0.6298391819000244,0.0,0.0,0.0,0,2
264864000000,-0.25936979055404663,0.4939408302307129,0.0,0.0,0.0,0,2
264956000000,-0.12603679299354553,0.22727422416210175,0.0,0.0,0.0,0,2
265052000000,-0.1652800440788269,0.0,0.02493833750486374,0.0,0.0,0,2
265148000000,-0.16361436247825623,0.0,0.29160502552986145,0.0,0.0,0,2
265276000000,-0.296947717666626,0.0,0.5582717061042786,0.0,0.0,0,2
265304000000,-0.4196043014526367,0.0,0.8248543739318848,0.0,0.0,0,2
265404000000,-0.5529376268386841,0.0,0.9141275882720947,0.0,0.0,0,2
265528000000,-0.6862702965736389,0.0,0.999997079372406,0.0,0.0,0,2
265588000000,-0.8196030259132385,0.0,0.7333303093910217,0.0,0.0,0,2
265684000000,-0.9517839550971985,0.0,0.4666745364665985,0.0,0.0,0,2
265784000000,-0.9999240636825562,0.0,0.45707938075065613,0.0,0.0,0,2
265812000000,-0.8681003451347351,0.0,0.7052673697471619,0.0,0.0,0,2
265908000000,-0.9987842440605164,0.0,0.4390285611152649,0.0,0.0,0,2
266036000000,-0.9999949336051941,0.0,0.7056626081466675,0.0,0.0,0,2
266092000000,-0.9895159602165222,0.0,0.4443642199039459,0.0,0.0,0,2
266220000000,-0.9455004334449768,0.0,0.1805703192949295,0.0,0.0,0,2
266312000000,-0.9295822978019714,0.0,0.00902443379163742,0.0,0.0,0,2
