%time,field.linear.x,field.linear.y,field.linear.z,field.angular.x,field.angular.y,field.angular.z
6830672000000,0.25,0.0,0.0,0.0,0.0,0.0
6830772000000,0.202209189534,0.0,0.0,0.0,0.0,0.177416339517
6830872000000,0.202209204435,0.0,0.0,0.0,0.0,0.640379309654
6830972000000,-0.0215403884649,0.0,0.0,0.0,0.0,0.688991308212
6831072000000,0.103152394295,0.0,0.0,0.0,0.0,0.921041727066
6831072000000,0.279269754887,0.0,0.0,0.0,0.0,1.05786156654
6831172000000,0.132300972939,0.0,0.0,0.0,0.0,1.24866008759
6831272000000,0.382301002741,0.0,0.0,0.0,0.0,1.24866008759
6831372000000,0.534735441208,0.0,0.0,0.0,0.0,1.17404139042
6831472000000,0.390204846859,0.0,0.0,0.0,0.0,0.983601927757
6831472000000,0.390204817057,0.0,0.0,0.0,0.0,0.520638942719
6831572000000,0.259463250637,0.0,0.0,0.0,0.0,0.74148786068
6831672000000,0.326761841774,0.0,0.0,0.0,0.0,0.403151899576
6831772000000,0.50836455822,0.0,0.0,0.0,0.0,0.363638430834
6831872000000,0.504275083542,0.0,0.0,0.0,0.0,0.64575189352
6831972000000,0.56702286005,0.0,0.0,0.0,0.0,0.992486059666
6832072000000,0.817022800446,0.0,0.0,0.0,0.0,0.992486000061
6832072000000,0.800413250923,0.0,0.0,0.0,0.0,0.600399792194
6832172000000,0.758756458759,0.0,0.0,0.0,0.0,0.986220479012
6832272000000,1.00875639915,0.0,0.0,0.0,0.0,0.986220538616
6832372000000,1.25875639915,0.0,0.0,0.0,0.0,0.986220479012
6832472000000,1.2890791893,0.0,0.0,0.0,0.0,1.39135324955
6832472000000,1.30449795723,0.0,0.0,0.0,0.0,1.82574987411
6832572000000,1.3674762249,0.0,0.0,0.0,0.0,1.47980380058
6832672000000,1.47423934937,0.0,0.0,0.0,0.0,1.21455001831
6832672000000,1.4707224369,0.0,0.0,0.0,0.0,0.766167700291
6832772000000,1.71131229401,0.0,0.0,0.0,0.0,0.783468604088
6832872000000,1.88443303108,0.0,0.0,0.0,0.0,0.90988266468
6832872000000,2.03025341034,0.0,0.0,0.0,0.0,1.10280561447
6832972000000,1.96822321415,0.0,0.0,0.0,0.0,0.834733605385
6833072000000,1.97506213188,0.0,0.0,0.0,0.0,0.529953956604
6833172000000,1.8852519989,0.0,0.0,0.0,0.0,0.367407679558
6833272000000,2.0549724102,0.0,0.0,0.0,0.0,0.402722001076
6833372000000,2.22071242332,0.0,0.0,0.0,0.0,0.389985084534
6833472000000,2.15238142014,0.0,0.0,0.0,0.0,0.0597137212753
6833472000000,2.39249873161,0.0,0.0,0.0,0.0,0.0778448581696
6833572000000,2.35429406166,0.0,0.0,0.0,0.0,-0.00987195968628
6833672000000,2.46430921555,0.0,0.0,0.0,0.0,-0.00655555725098
6833672000000,2.61091065407,0.0,0.0,0.0,0.0,0.120625019073
6833772000000,2.40322375298,0.0,0.0,0.0,0.0,0.0489637851715
6833872000000,2.24650764465,0.0,0.0,0.0,0.0,0.220622301102
6833972000000,2.38150286674,0.0,0.0,0.0,0.0,0.315908670425
6833972000000,2.47783851624,0.0,0.0,0.0,0.0,0.156923770905
6834072000000,2.65555500984,0.0,0.0,0.0,0.0,0.257686853409
6834172000000,2.6537361145,0.0,0.0,0.0,0.0,0.673093080521
6834272000000,2.73229289055,0.0,0.0,0.0,0.0,0.773493528366
6834372000000,2.8378200531,0.0,0.0,0.0,0.0,0.873399734497
6834372000000,3.03536272049,0.0,0.0,0.0,0.0,0.791072368622
6834472000000,3.21305561066,0.0,0.0,0.0,0.0,0.758351802826
6834572000000,3.46305561066,0.0,0.0,0.0,0.0,0.758351564407
6834572000000,3.48330211639,0.0,0.0,0.0,0.0,1.18379831314
6834672000000,3.57150363922,0.0,0.0,0.0,0.0,1.01396751404
6834772000000,3.61851978302,0.0,0.0,0.0,0.0,1.34706163406
6834772000000,3.61856651306,0.0,0.0,0.0,0.0,0.885080099106
6834872000000,3.64411735535,0.0,0.0,0.0,0.0,1.3007183075
6834972000000,3.80593061447,0.0,0.0,0.0,0.0,1.28849339485
6834972000000,4.02767467499,0.0,0.0,0.0,0.0,1.27000927925
6835072000000,4.14497089386,0.0,0.0,0.0,0.0,1.06872487068
6835172000000,4.29252243042,0.0,0.0,0.0,0.0,1.10942792892
6835272000000,4.22836399078,0.0,0.0,0.0,0.0,0.903344631195
6835372000000,4.19589042664,0.0,0.0,0.0,0.0,1.30616998672
6835372000000,4.19577741623,0.0,0.0,0.0,0.0,0.844291448593
6835472000000,4.39483737946,0.0,0.0,0.0,0.0,0.751975774765
6835572000000,4.4626083374,0.0,0.0,0.0,0.0,0.443790435791
6835672000000,4.46219444275,0.0,0.0,0.0,0.0,0.265816688538
6835772000000,4.46219444275,0.0,0.0,0.0,0.0,-0.19714641571
6835772000000,4.24969959259,0.0,0.0,0.0,0.0,-0.128391265869
6835872000000,4.05123138428,0.0,0.0,0.0,0.0,-0.173980474472
6835972000000,4.17490196228,0.0,0.0,0.0,0.0,-0.0750305652618
6835972000000,4.3896818161,0.0,0.0,0.0,0.0,-0.0195031166077
6836072000000,4.270819664,0.0,0.0,0.0,0.0,-0.20060634613
6836172000000,4.36737632751,0.0,0.0,0.0,0.0,-0.268673181534
6836172000000,4.5926399231,0.0,0.0,0.0,0.0,-0.302760601044
6836272000000,4.5733537674,0.0,0.0,0.0,0.0,-0.642137765884
6836372000000,4.62166213989,0.0,0.0,0.0,0.0,-0.700539827347
6836372000000,4.52548694611,0.0,0.0,0.0,0.0,-0.602444887161
6836472000000,4.47535181046,0.0,0.0,0.0,0.0,-0.35297703743
6836572000000,4.28553915024,0.0,0.0,0.0,0.0,-0.247650384903
6836672000000,4.47327041626,0.0,0.0,0.0,0.0,-0.362963676453
6836772000000,4.22327136993,0.0,0.0,0.0,0.0,-0.362965106964
6836872000000,4.03601455688,0.0,0.0,0.0,0.0,-0.479138851166
6836972000000,4.24154853821,0.0,0.0,0.0,0.0,-0.536034107208
6836972000000,4.17096424103,0.0,0.0,0.0,0.0,-0.815249919891
6837072000000,4.17096424103,0.0,0.0,0.0,0.0,-1.27821278572
6837172000000,4.29767227173,0.0,0.0,0.0,0.0,-1.04989433289
6837172000000,4.0559053421,0.0,0.0,0.0,0.0,-1.0650408268
6837272000000,4.27667140961,0.0,0.0,0.0,0.0,-1.0189743042
6837372000000,4.07084178925,0.0,0.0,0.0,0.0,-1.08349847794
6837372000000,4.03430938721,0.0,0.0,0.0,0.0,-0.694402217865
6837472000000,4.03430938721,0.0,0.0,0.0,0.0,-1.15736579895
6837572000000,4.00350809097,0.0,0.0,0.0,0.0,-1.54599189758
6837672000000,4.00350809097,0.0,0.0,0.0,0.0,-1.08302903175
6837772000000,3.91461443901,0.0,0.0,0.0,0.0,-1.37935209274
6837772000000,3.8202958107,0.0,0.0,0.0,0.0,-1.39446377754
6837872000000,3.84599971771,0.0,0.0,0.0,0.0,-1.02901649475
6837972000000,4.04908561707,0.0,0.0,0.0,0.0,-1.11574864388
6837972000000,4.13056850433,0.0,0.0,0.0,0.0,-1.07439947128
6838072000000,4.04105329514,0.0,0.0,0.0,0.0,-1.36430215836
6838172000000,4.04105329514,0.0,0.0,0.0,0.0,-0.901339292526
6838272000000,4.00027227402,0.0,0.0,0.0,0.0,-1.26046180725
6838372000000,3.87944197655,0.0,0.0,0.0,0.0,-1.30880904198
6838372000000,3.83458757401,0.0,0.0,0.0,0.0,-1.68103837967
6838472000000,3.58458757401,0.0,0.0,0.0,0.0,-1.68103885651
6838504000000,3.33458757401,0.0,0.0,0.0,0.0,-1.68103861809
6838540000000,3.08458757401,0.0,0.0,0.0,0.0,-1.68103861809
6838572000000,2.83458757401,0.0,0.0,0.0,0.0,-1.6810387373
6838604000000,2.58458781242,0.0,0.0,0.0,0.0,-1.68103861809
6838640000000,2.33458781242,0.0,0.0,0.0,0.0,-1.6810387373
6838672000000,2.08458781242,0.0,0.0,0.0,0.0,-1.68103861809
6838704000000,1.83458781242,0.0,0.0,0.0,0.0,-1.68103885651
6838740000000,1.58458793163,0.0,0.0,0.0,0.0,-1.68103885651
6838772000000,1.33458793163,0.0,0.0,0.0,0.0,-1.6810387373
6838804000000,1.08458793163,0.0,0.0,0.0,0.0,-1.68103897572
6838840000000,0.871174454689,0.0,0.0,0.0,0.0,-1.61328613758
6838872000000,0.746174514294,0.0,0.0,0.0,0.0,-1.38180470467
6838904000000,0.621174514294,0.0,0.0,0.0,0.0,-1.15032327175
6838940000000,0.496174514294,0.0,0.0,0.0,0.0,-0.918841719627
6838972000000,0.371174484491,0.0,0.0,0.0,0.0,-0.687360227108
6839004000000,0.246174484491,0.0,0.0,0.0,0.0,-0.455878704786
6839040000000,0.121174491942,0.0,0.0,0.0,0.0,-0.224397212267
6839072000000,0.0,0.0,0.0,0.0,0.0,0.0
6841704000000,-0.157725036144,0.0,0.0,0.0,0.0,-0.170879542828
6841804000000,-0.157725036144,0.0,0.0,0.0,0.0,-0.633842468262
6841904000000,-0.239601910114,0.0,0.0,0.0,0.0,-0.945181667805
6841904000000,-0.290819704533,0.0,0.0,0.0,0.0,-1.3132969141
6842004000000,-0.290819704533,0.0,0.0,0.0,0.0,-1.77625989914
6842104000000,-0.0408196747303,0.0,0.0,0.0,0.0,-1.77625989914
6842204000000,-0.152835488319,0.0,0.0,0.0,0.0,-1.90746712685
6842304000000,0.0404864549637,0.0,0.0,0.0,0.0,-2.01242637634
6842404000000,-0.0984752178192,0.0,0.0,0.0,0.0,-2.01242613792
6842504000000,-0.243406623602,0.0,0.0,0.0,0.0,-2.19734096527
6842604000000,-0.160530745983,0.0,0.0,0.0,0.0,-2.28265953064
6842704000000,-0.402753740549,0.0,0.0,0.0,0.0,-2.2966375351
6842804000000,-0.405603766441,0.0,0.0,0.0,0.0,-2.75432252884
6842904000000,-0.655603766441,0.0,0.0,0.0,0.0,-2.75432252884
6843004000000,-0.634521067142,0.0,0.0,0.0,0.0,-2.48066425323
6843104000000,-0.495282530785,0.0,0.0,0.0,0.0,-2.30112361908
6843204000000,-0.487905412912,0.0,0.0,0.0,0.0,-1.92954277992
6843304000000,-0.237905472517,0.0,0.0,0.0,0.0,-1.92954289913
6843404000000,-0.0723663568497,0.0,0.0,0.0,0.0,-2.08595204353
6843504000000,0.15009534359,0.0,0.0,0.0,0.0,-2.03495526314
6843504000000,-0.0999046564102,0.0,0.0,0.0,0.0,-2.03495502472
6843604000000,0.149031490088,0.0,0.0,0.0,0.0,-2.0351805687
6843704000000,0.255995839834,0.0,0.0,0.0,0.0,-1.77037751675
6843804000000,0.00599583983421,0.0,0.0,0.0,0.0,-1.77037751675
6843904000000,0.255995839834,0.0,0.0,0.0,0.0,-1.77037751675
6844004000000,0.00599583983421,0.0,0.0,0.0,0.0,-1.77037751675
6844104000000,0.238972604275,0.0,0.0,0.0,0.0,-1.7864317894
6844204000000,0.252902507782,0.0,0.0,0.0,0.0,-2.22344398499
6844304000000,0.41746082902,0.0,0.0,0.0,0.0,-2.27000594139
6844404000000,0.49989181757,0.0,0.0,0.0,0.0,-2.2137901783
6844504000000,0.659443259239,0.0,0.0,0.0,0.0,-2.04629468918
6844604000000,0.659443318844,0.0,0.0,0.0,0.0,-1.58333170414
6844704000000,0.74514311552,0.0,0.0,0.0,0.0,-1.27907204628
6844804000000,0.832910239697,0.0,0.0,0.0,0.0,-0.978640913963
6844904000000,1.01209950447,0.0,0.0,0.0,0.0,-0.916052639484
6845004000000,1.01209950447,0.0,0.0,0.0,0.0,-1.37901568413
6845104000000,1.2619997263,0.0,0.0,0.0,0.0,-1.3791000843
6845204000000,1.23497569561,0.0,0.0,0.0,0.0,-0.966275691986
6845304000000,1.48495960236,0.0,0.0,0.0,0.0,-0.966247737408
6845404000000,1.73495960236,0.0,0.0,0.0,0.0,-0.966248035431
6845504000000,1.98495960236,0.0,0.0,0.0,0.0,-0.966247797012
6845604000000,2.20335626602,0.0,0.0,0.0,0.0,-1.02367758751
6845704000000,2.45335626602,0.0,0.0,0.0,0.0,-1.0236774683
6845804000000,2.27053689957,0.0,0.0,0.0,0.0,-0.90327334404
6845904000000,2.27053689957,0.0,0.0,0.0,0.0,-0.44031059742
6846004000000,2.27578759193,0.0,0.0,0.0,0.0,-0.0220603942871
6846104000000,2.52578759193,0.0,0.0,0.0,0.0,-0.0220603942871
6846204000000,2.77578639984,0.0,0.0,0.0,0.0,-0.0220625400543
6846304000000,3.02578639984,0.0,0.0,0.0,0.0,-0.0220625400543
6846404000000,3.27578639984,0.0,0.0,0.0,0.0,-0.0220625400543
6846504000000,3.27578639984,0.0,0.0,0.0,0.0,0.440900325775
6846604000000,3.27578639984,0.0,0.0,0.0,0.0,0.903863191605
6846704000000,3.27549266815,0.0,0.0,0.0,0.0,0.516824245453
6846804000000,3.02549266815,0.0,0.0,0.0,0.0,0.516824483871
6846904000000,3.17957639694,0.0,0.0,0.0,0.0,0.67400765419
6847004000000,3.29866147041,0.0,0.0,0.0,0.0,0.431572675705
6847104000000,3.54521656036,0.0,0.0,0.0,0.0,0.425193548203
6847204000000,3.54521656036,0.0,0.0,0.0,0.0,-0.0377695560455
6847304000000,3.29521656036,0.0,0.0,0.0,0.0,-0.037769317627
6847404000000,3.29521679878,0.0,0.0,0.0,0.0,0.425193548203
6847504000000,3.25978708267,0.0,0.0,0.0,0.0,0.0278408527374
6847604000000,3.50978708267,0.0,0.0,0.0,0.0,0.0278408527374
6847704000000,3.55053210258,0.0,0.0,0.0,0.0,-0.353904485703
6847804000000,3.67622089386,0.0,0.0,0.0,0.0,-0.533418416977
6847904000000,3.5686545372,0.0,0.0,0.0,0.0,-0.797185182571
6848004000000,3.32599973679,0.0,0.0,0.0,0.0,-0.783661603928
6848104000000,3.33247566223,0.0,0.0,0.0,0.0,-0.361914634705
6848204000000,3.33400154114,0.0,0.0,0.0,0.0,0.0914258956909
6848304000000,3.55017447472,0.0,0.0,0.0,0.0,0.0287868976593
6848404000000,3.79268121719,0.0,0.0,0.0,0.0,0.0425779819489
6848504000000,3.56409072876,0.0,0.0,0.0,0.0,0.0499141216278
6848604000000,3.31629633904,0.0,0.0,0.0,0.0,0.0514802932739
6848704000000,3.29638147354,0.0,0.0,0.0,0.0,0.477538347244
6848804000000,3.26883292198,0.0,0.0,0.0,0.0,0.889476299286
6848904000000,3.51883268356,0.0,0.0,0.0,0.0,0.889476060867
6849004000000,3.4956870079,0.0,0.0,0.0,0.0,1.3095767498
6849104000000,3.74567079544,0.0,0.0,0.0,0.0,1.30954766273
6849204000000,3.98604631424,0.0,0.0,0.0,0.0,1.29172468185
6849304000000,3.98282718658,0.0,0.0,0.0,0.0,0.834742069244
6849404000000,3.98282718658,0.0,0.0,0.0,0.0,0.371778964996
6849504000000,3.88029074669,0.0,0.0,0.0,0.0,0.368030309677
6849604000000,4.03870105743,0.0,0.0,0.0,0.0,0.537641048431
6849704000000,4.03870105743,0.0,0.0,0.0,0.0,1.00060415268
6849804000000,4.26866865158,0.0,0.0,0.0,0.0,0.969118356705
6849904000000,4.2999458313,0.0,0.0,0.0,0.0,0.568779468536
6850004000000,4.5499458313,0.0,0.0,0.0,0.0,0.568779706955
6850104000000,4.71524047852,0.0,0.0,0.0,0.0,0.426326751709
6850204000000,4.71524047852,0.0,0.0,0.0,0.0,-0.0366363525391
6850304000000,4.96404075623,0.0,0.0,0.0,0.0,-0.0344986915588
6850404000000,4.7411737442,0.0,0.0,0.0,0.0,0.0153861045837
6850504000000,4.5245718956,0.0,0.0,0.0,0.0,0.007239818573
6850604000000,4.58300018311,0.0,0.0,0.0,0.0,-0.347522258759
6850704000000,4.57266902924,0.0,0.0,0.0,0.0,-0.791353702545
6850804000000,4.46068334579,0.0,0.0,0.0,0.0,-0.978477478027
6850904000000,4.21610736847,0.0,0.0,0.0,0.0,-0.986921787262
6851004000000,4.20165538788,0.0,0.0,0.0,0.0,-1.40482616425
6851104000000,4.08455276489,0.0,0.0,0.0,0.0,-1.65090823174
6851204000000,4.00187349319,0.0,0.0,0.0,0.0,-1.84837269783
6851304000000,3.75187349319,0.0,0.0,0.0,0.0,-1.84837269783
6851404000000,3.75213980675,0.0,0.0,0.0,0.0,-2.31002140045
6851504000000,3.62736415863,0.0,0.0,0.0,0.0,-2.54191875458
6851604000000,3.37736415863,0.0,0.0,0.0,0.0,-2.54191851616
6851704000000,3.55970811844,0.0,0.0,0.0,0.0,-2.5872528553
6851804000000,3.30970811844,0.0,0.0,0.0,0.0,-2.5872528553
6851904000000,3.05970811844,0.0,0.0,0.0,0.0,-2.58725309372
6851940000000,2.80970811844,0.0,0.0,0.0,0.0,-2.58725309372
6851972000000,2.55970811844,0.0,0.0,0.0,0.0,-2.58725309372
6852004000000,2.30970811844,0.0,0.0,0.0,0.0,-2.58725309372
6852040000000,2.05970835686,0.0,0.0,0.0,0.0,-2.58725309372
6852072000000,1.80970835686,0.0,0.0,0.0,0.0,-2.58725309372
6852104000000,1.55970835686,0.0,0.0,0.0,0.0,-2.58725333214
6852140000000,1.35341250896,0.0,0.0,0.0,0.0,-2.50631952286
6852172000000,1.22841250896,0.0,0.0,0.0,0.0,-2.27483820915
6852204000000,1.10341262817,0.0,0.0,0.0,0.0,-2.04335665703
6852240000000,0.978412568569,0.0,0.0,0.0,0.0,-1.81187522411
6852272000000,0.853412628174,0.0,0.0,0.0,0.0,-1.5803937912
6852304000000,0.728412628174,0.0,0.0,0.0,0.0,-1.34891235828
6852340000000,0.603412687778,0.0,0.0,0.0,0.0,-1.11743092537
6852372000000,0.478412657976,0.0,0.0,0.0,0.0,-0.885949373245
6852404000000,0.353412657976,0.0,0.0,0.0,0.0,-0.654467880726
6852440000000,0.228412643075,0.0,0.0,0.0,0.0,-0.422986388206
6852472000000,0.103412643075,0.0,0.0,0.0,0.0,-0.191504895687
6852504000000,0.0,0.0,0.0,0.0,0.0,0.0
6855596000000,1.49011611938e-08,0.0,0.0,0.0,0.0,-0.462962985039
6855696000000,-0.249999985099,0.0,0.0,0.0,0.0,-0.462963014841
6855796000000,-0.00250490754843,0.0,0.0,0.0,0.0,-0.458324253559
6855896000000,0.247495085001,0.0,0.0,0.0,0.0,-0.458324253559
6855996000000,0.247495085001,0.0,0.0,0.0,0.0,0.00463873147964
6856096000000,0.247495085001,0.0,0.0,0.0,0.0,0.467601716518
6856196000000,0.497495085001,0.0,0.0,0.0,0.0,0.467601716518
6856296000000,0.497495085001,0.0,0.0,0.0,0.0,0.930564701557
6856396000000,0.379550039768,0.0,0.0,0.0,0.0,1.17511093616
6856496000000,0.629550039768,0.0,0.0,0.0,0.0,1.17511081696
6856596000000,0.814726769924,0.0,0.0,0.0,0.0,1.29515385628
6856696000000,0.822444558144,0.0,0.0,0.0,0.0,0.846482872963
6856796000000,1.07244443893,0.0,0.0,0.0,0.0,0.846482813358
6856896000000,1.06194090843,0.0,0.0,0.0,0.0,0.45963793993
6856996000000,1.06194090843,0.0,0.0,0.0,0.0,-0.0033250451088
6857096000000,1.31194090843,0.0,0.0,0.0,0.0,-0.00332498550415
6857196000000,1.37923598289,0.0,0.0,0.0,0.0,-0.341664791107
6857296000000,1.62923598289,0.0,0.0,0.0,0.0,-0.341664791107
6857396000000,1.62923598289,0.0,0.0,0.0,0.0,0.121298074722
6857496000000,1.39860677719,0.0,0.0,0.0,0.0,0.108097672462
6857596000000,1.64026880264,0.0,0.0,0.0,0.0,0.123376011848
6857696000000,1.89026880264,0.0,0.0,0.0,0.0,0.123376011848
6857796000000,2.13567829132,0.0,0.0,0.0,0.0,0.131846427917
6857896000000,2.16390609741,0.0,0.0,0.0,0.0,0.542535543442
6857996000000,2.08200335503,0.0,0.0,0.0,0.0,0.231244444847
6858096000000,1.85278868675,0.0,0.0,0.0,0.0,0.269731283188
6858196000000,2.06650876999,0.0,0.0,0.0,0.0,0.2415766716
6858296000000,2.06654429436,0.0,0.0,0.0,0.0,0.704460382462
6858396000000,2.30710864067,0.0,0.0,0.0,0.0,0.687158703804
6858496000000,2.30710887909,0.0,0.0,0.0,0.0,0.224195718765
6858596000000,2.05710887909,0.0,0.0,0.0,0.0,0.224195957184
6858696000000,2.30710887909,0.0,0.0,0.0,0.0,0.224195718765
6858796000000,2.05741739273,0.0,0.0,0.0,0.0,0.22470998764
6858896000000,2.05741739273,0.0,0.0,0.0,0.0,0.687673211098
6858996000000,2.30741739273,0.0,0.0,0.0,0.0,0.687673091888
6859096000000,2.31799077988,0.0,0.0,0.0,0.0,0.244352340698
6859196000000,2.56799077988,0.0,0.0,0.0,0.0,0.244352340698
6859296000000,2.54556298256,0.0,0.0,0.0,0.0,-0.0981378555298
6859396000000,2.79556298256,0.0,0.0,0.0,0.0,-0.0981378555298
6859496000000,2.79431867599,0.0,0.0,0.0,0.0,0.263761997223
6859596000000,2.5589568615,0.0,0.0,0.0,0.0,0.239447116852
6859696000000,2.37463307381,0.0,0.0,0.0,0.0,0.358629465103
6859796000000,2.37463307381,0.0,0.0,0.0,0.0,0.821592450142
6859896000000,2.41002845764,0.0,0.0,0.0,0.0,0.466945290565
6859996000000,2.51395392418,0.0,0.0,0.0,0.0,0.48548913002
6860096000000,2.51395368576,0.0,0.0,0.0,0.0,0.948452115059
6860196000000,2.26395392418,0.0,0.0,0.0,0.0,0.94845199585
6860296000000,2.3028588295,0.0,0.0,0.0,0.0,1.33936846256
6860396000000,2.55242753029,0.0,0.0,0.0,0.0,1.33864414692
6860496000000,2.55242753029,0.0,0.0,0.0,0.0,1.80160713196
6860596000000,2.33313083649,0.0,0.0,0.0,0.0,1.74474906921
6860696000000,2.34826564789,0.0,0.0,0.0,0.0,1.30981361866
6860796000000,2.10878133774,0.0,0.0,0.0,0.0,1.32528042793
6860896000000,1.85878121853,0.0,0.0,0.0,0.0,1.32528030872
6860996000000,1.70794153214,0.0,0.0,0.0,0.0,1.14165067673
6861096000000,1.70528197289,0.0,0.0,0.0,0.0,0.691141486168
6861196000000,1.83165669441,0.0,0.0,0.0,0.0,0.523733258247
6861296000000,1.84580886364,0.0,0.0,0.0,0.0,0.17382133007
6861396000000,1.78777384758,0.0,0.0,0.0,0.0,-0.181669354439
6861396000000,1.86370921135,0.0,0.0,0.0,0.0,-0.503985285759
6861496000000,1.77128386497,0.0,0.0,0.0,0.0,-0.267440199852
6861596000000,2.01936340332,0.0,0.0,0.0,0.0,-0.266938447952
6861696000000,2.19035220146,0.0,0.0,0.0,0.0,-0.120621085167
6861796000000,2.19035220146,0.0,0.0,0.0,0.0,0.342341661453
6861896000000,2.1889462471,0.0,0.0,0.0,0.0,-0.105365991592
6861996000000,1.9389462471,0.0,0.0,0.0,0.0,-0.105366230011
6862096000000,2.12128400803,0.0,0.0,0.0,0.0,-0.230666041374
6862196000000,2.12128400803,0.0,0.0,0.0,0.0,0.232296943665
6862196000000,2.12128424644,0.0,0.0,0.0,0.0,0.695259928703
6862296000000,2.12128424644,0.0,0.0,0.0,0.0,1.15822291374
6862396000000,1.87128424644,0.0,0.0,0.0,0.0,1.15822279453
6862496000000,1.97504639626,0.0,0.0,0.0,0.0,0.887411832809
6862596000000,1.72504639626,0.0,0.0,0.0,0.0,0.8874117136
6862632000000,1.47504639626,0.0,0.0,0.0,0.0,0.887411892414
6862664000000,1.22504639626,0.0,0.0,0.0,0.0,0.887411952019
6862696000000,0.97504645586,0.0,0.0,0.0,0.0,0.887411892414
6862732000000,0.72504645586,0.0,0.0,0.0,0.0,0.887411952019
6862764000000,0.477124452591,0.0,0.0,0.0,0.0,0.883563816547
6862796000000,0.352124452591,0.0,0.0,0.0,0.0,0.652082324028
6862832000000,0.22712443769,0.0,0.0,0.0,0.0,0.420600831509
6862864000000,0.10212443769,0.0,0.0,0.0,0.0,0.189119338989
6862896000000,0.0,0.0,0.0,0.0,0.0,0.0
6866116000000,0.222956955433,0.0,0.0,0.0,0.0,0.0500797480345
6866216000000,0.222956970334,0.0,0.0,0.0,0.0,0.513042747974
6866316000000,0.472956985235,0.0,0.0,0.0,0.0,0.513042807579
6866316000000,0.286128431559,0.0,0.0,0.0,0.0,0.500524520874
6866416000000,0.0545149222016,0.0,0.0,0.0,0.0,0.531800806522
6866516000000,0.0545148998499,0.0,0.0,0.0,0.0,0.994763791561
6866516000000,0.0545149147511,0.0,0.0,0.0,0.0,1.457726717
6866616000000,-0.195135116577,0.0,0.0,0.0,0.0,1.45837497711
6866716000000,-0.208947360516,0.0,0.0,0.0,0.0,1.89575958252
6866816000000,-0.131027281284,0.0,0.0,0.0,0.0,2.21442627907
6866916000000,-0.381027281284,0.0,0.0,0.0,0.0,2.21442604065
6866916000000,-0.63102722168,0.0,0.0,0.0,0.0,2.21442604065
6867016000000,-0.653905510902,0.0,0.0,0.0,0.0,2.63502192497
6867116000000,-0.903905510902,0.0,0.0,0.0,0.0,2.63502192497
6867216000000,-1.1539055109,0.0,0.0,0.0,0.0,2.63502192497
6867316000000,-0.903905510902,0.0,0.0,0.0,0.0,2.63502192497
6867416000000,-0.877588450909,0.0,0.0,0.0,0.0,2.24831080437
6867516000000,-0.762477815151,0.0,0.0,0.0,0.0,2.49178028107
6867616000000,-1.01247787476,0.0,0.0,0.0,0.0,2.49178028107
6867616000000,-1.0622382164,0.0,0.0,0.0,0.0,2.12096595764
6867716000000,-0.927419543266,0.0,0.0,0.0,0.0,1.90766727924
6867816000000,-0.857338905334,0.0,0.0,0.0,0.0,2.14791750908
6867916000000,-0.856354832649,0.0,0.0,0.0,0.0,1.71537852287
6868016000000,-1.01797676086,0.0,0.0,0.0,0.0,1.65759408474
6868116000000,-1.10713434219,0.0,0.0,0.0,0.0,1.36180949211
6868216000000,-0.857134699821,0.0,0.0,0.0,0.0,1.36181008816
6868316000000,-0.784719347954,0.0,0.0,0.0,0.0,1.68017220497
6868416000000,-0.985974013805,0.0,0.0,0.0,0.0,1.73113560677
6868516000000,-0.826578855515,0.0,0.0,0.0,0.0,1.58509898186
6868616000000,-0.586889088154,0.0,0.0,0.0,0.0,1.56606519222
6868616000000,-0.628496944904,0.0,0.0,0.0,0.0,1.86645877361
6868716000000,-0.476097673178,0.0,0.0,0.0,0.0,1.83098268509
6868816000000,-0.372409462929,0.0,0.0,0.0,0.0,1.63651013374
6868816000000,-0.314494103193,0.0,0.0,0.0,0.0,1.2808047533
6868916000000,-0.135696232319,0.0,0.0,0.0,0.0,1.41265845299
6869016000000,0.111776143312,0.0,0.0,0.0,0.0,1.41722667217
6869116000000,0.36177611351,0.0,0.0,0.0,0.0,1.41722667217
6869216000000,0.366905540228,0.0,0.0,0.0,0.0,1.79756617546
6869316000000,0.158711403608,0.0,0.0,0.0,0.0,1.84922099113
6869416000000,0.202015668154,0.0,0.0,0.0,0.0,1.4664542675
6869416000000,0.434969544411,0.0,0.0,0.0,0.0,1.49442899227
6869516000000,0.474732220173,0.0,0.0,0.0,0.0,1.26169514656
6869616000000,0.633015871048,0.0,0.0,0.0,0.0,1.3811930418
6869616000000,0.448074698448,0.0,0.0,0.0,0.0,1.26071381569
6869716000000,0.574621677399,0.0,0.0,0.0,0.0,1.48933041096
6869816000000,0.759833693504,0.0,0.0,0.0,0.0,1.36935353279
6869816000000,0.911383330822,0.0,0.0,0.0,0.0,1.24850702286
6869916000000,1.16138339043,0.0,0.0,0.0,0.0,1.24850690365
6870016000000,1.16138339043,0.0,0.0,0.0,0.0,1.71146988869
6870116000000,1.41017413139,0.0,0.0,0.0,0.0,1.71293354034
6870216000000,1.4863601923,0.0,0.0,0.0,0.0,2.0348045826
6870316000000,1.60772383213,0.0,0.0,0.0,0.0,2.15374207497
6870416000000,1.65200424194,0.0,0.0,0.0,0.0,1.81045794487
6870416000000,1.69972109795,0.0,0.0,0.0,0.0,1.456346035
6870516000000,1.82957005501,0.0,0.0,0.0,0.0,1.23384404182
6870616000000,1.89127826691,0.0,0.0,0.0,0.0,1.01328623295
6870616000000,2.08377981186,0.0,0.0,0.0,0.0,1.11976492405
6870716000000,2.22875809669,0.0,0.0,0.0,0.0,0.925280809402
6870816000000,2.44671750069,0.0,0.0,0.0,0.0,0.916104912758
6870916000000,2.68286705017,0.0,0.0,0.0,0.0,0.904465436935
6871016000000,2.74175453186,0.0,0.0,0.0,0.0,0.977407932281
6871016000000,2.94335603714,0.0,0.0,0.0,0.0,0.887781381607
6871116000000,3.1548166275,0.0,0.0,0.0,0.0,0.95902633667
6871216000000,3.29664754868,0.0,0.0,0.0,0.0,1.12068748474
6871316000000,3.27070307732,0.0,0.0,0.0,0.0,0.792069673538
6871416000000,3.45405030251,0.0,0.0,0.0,0.0,0.911435127258
6871416000000,3.2621512413,0.0,0.0,0.0,0.0,0.86482334137
6871516000000,3.19954776764,0.0,0.0,0.0,0.0,0.578457832336
6871616000000,2.94954776764,0.0,0.0,0.0,0.0,0.578458070755
6871616000000,3.19073820114,0.0,0.0,0.0,0.0,0.566497802734
6871716000000,3.21798586845,0.0,0.0,0.0,0.0,0.163350582123
6871816000000,3.07636284828,0.0,0.0,0.0,0.0,0.119795084
6871816000000,3.17321205139,0.0,0.0,0.0,0.0,0.0339033603668
6871916000000,3.03021478653,0.0,0.0,0.0,0.0,-0.13157582283
6872016000000,3.14198994637,0.0,0.0,0.0,0.0,-0.313603639603
6872016000000,3.38232755661,0.0,0.0,0.0,0.0,-0.30163860321
6872116000000,3.23777532578,0.0,0.0,0.0,0.0,-0.315130710602
6872216000000,3.40751886368,0.0,0.0,0.0,0.0,-0.427423000336
6872316000000,3.22968840599,0.0,0.0,0.0,0.0,-0.370702028275
6872416000000,3.22968840599,0.0,0.0,0.0,0.0,0.0922608375549
6872516000000,2.97968840599,0.0,0.0,0.0,0.0,0.0922608375549
6872616000000,3.04482746124,0.0,0.0,0.0,0.0,0.434596061707
6872616000000,2.97543096542,0.0,0.0,0.0,0.0,0.110419988632
6872716000000,2.97543096542,0.0,0.0,0.0,0.0,-0.352542877197
6872816000000,3.19253063202,0.0,0.0,0.0,0.0,-0.315868377686
6872916000000,3.28899765015,0.0,0.0,0.0,0.0,-0.600188732147
6873016000000,3.48047685623,0.0,0.0,0.0,0.0,-0.708560705185
6873116000000,3.49607467651,0.0,0.0,0.0,0.0,-1.06597137451
6873216000000,3.27211785316,0.0,0.0,0.0,0.0,-1.11415743828
6873316000000,3.40038609505,0.0,0.0,0.0,0.0,-1.31418585777
6873316000000,3.35238647461,0.0,0.0,0.0,0.0,-1.00104880333
6873416000000,3.27575659752,0.0,0.0,0.0,0.0,-1.21370196342
6873516000000,3.08221650124,0.0,0.0,0.0,0.0,-1.11314249039
6873616000000,3.02985286713,0.0,0.0,0.0,0.0,-0.747217178345
6873716000000,2.88405227661,0.0,0.0,0.0,0.0,-0.554255723953
6873816000000,2.65850877762,0.0,0.0,0.0,0.0,-0.515275001526
6873916000000,2.57616615295,0.0,0.0,0.0,0.0,-0.825736641884
6873916000000,2.57616615295,0.0,0.0,0.0,0.0,-1.2886993885
6874016000000,2.34752011299,0.0,0.0,0.0,0.0,-1.29782044888
6874116000000,2.35100650787,0.0,0.0,0.0,0.0,-0.84131360054
6874216000000,2.19350194931,0.0,0.0,0.0,0.0,-1.01260149479
6874316000000,2.19350194931,0.0,0.0,0.0,0.0,-0.54963850975
6874416000000,2.44344425201,0.0,0.0,0.0,0.0,-0.549531579018
6874516000000,2.46437597275,0.0,0.0,0.0,0.0,-0.154371023178
6874516000000,2.21437597275,0.0,0.0,0.0,0.0,-0.15437078476
6874616000000,2.21437597275,0.0,0.0,0.0,0.0,0.308591842651
6874716000000,2.21437597275,0.0,0.0,0.0,0.0,-0.15437078476
6874716000000,2.08075141907,0.0,0.0,0.0,0.0,0.0611388683319
6874816000000,2.08075141907,0.0,0.0,0.0,0.0,0.524101853371
6874916000000,1.83075141907,0.0,0.0,0.0,0.0,0.52410197258
6874916000000,2.05202364922,0.0,0.0,0.0,0.0,0.577301383018
6875016000000,2.05147910118,0.0,0.0,0.0,0.0,1.03781652451
6875116000000,2.24052000046,0.0,0.0,0.0,0.0,0.969523906708
6875216000000,1.99052000046,0.0,0.0,0.0,0.0,0.969523787498
6875248000000,1.74052000046,0.0,0.0,0.0,0.0,0.969524025917
6875280000000,1.49052011967,0.0,0.0,0.0,0.0,0.969523906708
6875316000000,1.24052011967,0.0,0.0,0.0,0.0,0.969524025917
6875348000000,0.990520119667,0.0,0.0,0.0,0.0,0.969524085522
6875380000000,0.740520119667,0.0,0.0,0.0,0.0,0.969524145126
6875416000000,0.507031559944,0.0,0.0,0.0,0.0,0.938947379589
6875448000000,0.382031559944,0.0,0.0,0.0,0.0,0.70746588707
6875480000000,0.257031559944,0.0,0.0,0.0,0.0,0.475984364748
6875516000000,0.132031545043,0.0,0.0,0.0,0.0,0.24450288713
6875548000000,0.00703155109659,0.0,0.0,0.0,0.0,0.0130213918164
6875580000000,0.0,0.0,0.0,0.0,0.0,0.0
6878600000000,-0.155415356159,0.0,0.0,0.0,0.0,-0.175156787038
6878700000000,-0.155415385962,0.0,0.0,0.0,0.0,-0.63811981678
6878800000000,-0.0710284858942,0.0,0.0,0.0,0.0,-0.943098306656
6878800000000,-0.321028470993,0.0,0.0,0.0,0.0,-0.943098306656
6878900000000,-0.321028470993,0.0,0.0,0.0,0.0,-1.4060614109
6879000000000,-0.321017056704,0.0,0.0,0.0,0.0,-1.86900317669
6879000000000,-0.321017056704,0.0,0.0,0.0,0.0,-2.33196616173
6879100000000,-0.523537993431,0.0,0.0,0.0,0.0,-2.24404191971
6879200000000,-0.773538053036,0.0,0.0,0.0,0.0,-2.24404191971
6879300000000,-1.0191719532,0.0,0.0,0.0,0.0,-2.25046539307
6879400000000,-1.2691719532,0.0,0.0,0.0,0.0,-2.25046515465
6879500000000,-1.06279397011,0.0,0.0,0.0,0.0,-2.16970276833
6879600000000,-0.976618826389,0.0,0.0,0.0,0.0,-1.86632347107
6879700000000,-1.04279839993,0.0,0.0,0.0,0.0,-1.52591514587
6879800000000,-1.29279828072,0.0,0.0,0.0,0.0,-1.52591514587
6879800000000,-1.11454248428,0.0,0.0,0.0,0.0,-1.65075814724
6879900000000,-1.26860582829,0.0,0.0,0.0,0.0,-1.66458272934
6880000000000,-1.15329492092,0.0,0.0,0.0,0.0,-1.91400694847
6880000000000,-0.93058180809,0.0,0.0,0.0,0.0,-1.92357957363
6880100000000,-0.940790474415,0.0,0.0,0.0,0.0,-1.52557134628
6880200000000,-0.78072398901,0.0,0.0,0.0,0.0,-1.57974231243
6880200000000,-0.549656152725,0.0,0.0,0.0,0.0,-1.57893943787
6880300000000,-0.29965621233,0.0,0.0,0.0,0.0,-1.57893955708
6880400000000,-0.102667659521,0.0,0.0,0.0,0.0,-1.67710900307
6880400000000,-0.113651931286,0.0,0.0,0.0,0.0,-1.28296661377
6880500000000,0.136348068714,0.0,0.0,0.0,0.0,-1.28296661377
6880600000000,0.109842866659,0.0,0.0,0.0,0.0,-1.69679021835
6880600000000,0.114650547504,0.0,0.0,0.0,0.0,-1.24300301075
6880700000000,0.204839408398,0.0,0.0,0.0,0.0,-1.12870240211
6880800000000,0.454839408398,0.0,0.0,0.0,0.0,-1.12870240211
6880900000000,0.704839408398,0.0,0.0,0.0,0.0,-1.12870240211
6881000000000,0.704839408398,0.0,0.0,0.0,0.0,-1.59166538715
6881100000000,0.954839408398,0.0,0.0,0.0,0.0,-1.59166526794
6881200000000,1.204839468,0.0,0.0,0.0,0.0,-1.59166526794
6881200000000,1.22550582886,0.0,0.0,0.0,0.0,-2.01635718346
6881300000000,1.44607424736,0.0,0.0,0.0,0.0,-2.07085990906
6881400000000,1.60492515564,0.0,0.0,0.0,0.0,-2.23965454102
6881400000000,1.85492503643,0.0,0.0,0.0,0.0,-2.23965454102
6881500000000,2.10492515564,0.0,0.0,0.0,0.0,-2.23965454102
6881600000000,2.35492515564,0.0,0.0,0.0,0.0,-2.23965454102
6881600000000,2.35492515564,0.0,0.0,0.0,0.0,-2.70261764526
6881700000000,2.35342741013,0.0,0.0,0.0,0.0,-2.24242806435
6881800000000,2.25304222107,0.0,0.0,0.0,0.0,-2.51949262619
6881900000000,2.25304222107,0.0,0.0,0.0,0.0,-2.05652976036
6882000000000,2.31406068802,0.0,0.0,0.0,0.0,-1.70656383038
6882100000000,2.31406068802,0.0,0.0,0.0,0.0,-1.24360084534
6882200000000,2.49681425095,0.0,0.0,0.0,0.0,-1.29164612293
6882300000000,2.73281526566,0.0,0.0,0.0,0.0,-1.2657225132
6882300000000,2.98281526566,0.0,0.0,0.0,0.0,-1.2657225132
6882400000000,2.73281526566,0.0,0.0,0.0,0.0,-1.2657225132
6882500000000,2.98281526566,0.0,0.0,0.0,0.0,-1.2657225132
6882600000000,3.2238612175,0.0,0.0,0.0,0.0,-1.26250171661
6882700000000,3.33200001717,0.0,0.0,0.0,0.0,-1.52519869804
6882800000000,3.33200025558,0.0,0.0,0.0,0.0,-1.06223583221
6882900000000,3.58200001717,0.0,0.0,0.0,0.0,-1.06223583221
6882900000000,3.83200001717,0.0,0.0,0.0,0.0,-1.0622355938
6883000000000,3.81257247925,0.0,0.0,0.0,0.0,-0.635288715363
6883100000000,3.72202396393,0.0,0.0,0.0,0.0,-0.363559246063
6883100000000,3.72434258461,0.0,0.0,0.0,0.0,-0.17581152916
6883200000000,3.89492440224,0.0,0.0,0.0,0.0,-0.229842185974
6883300000000,4.05736398697,0.0,0.0,0.0,0.0,-0.378465414047
6883400000000,4.13372802734,0.0,0.0,0.0,0.0,-0.186083316803
6883500000000,4.1768693924,0.0,0.0,0.0,0.0,-0.196053028107
6883500000000,4.36102294922,0.0,0.0,0.0,0.0,-0.219959259033
6883600000000,4.51832723618,0.0,0.0,0.0,0.0,-0.173991680145
6883700000000,4.74809265137,0.0,0.0,0.0,0.0,-0.164199829102
6883800000000,4.86115074158,0.0,0.0,0.0,0.0,-0.18544960022
6883900000000,4.95318222046,0.0,0.0,0.0,0.0,0.0867004394531
6883900000000,4.8750166893,0.0,0.0,0.0,0.0,-0.231445789337
6884000000000,4.87499904633,0.0,0.0,0.0,0.0,0.23148393631
6884100000000,4.72858047485,0.0,0.0,0.0,0.0,0.0396666526794
6884200000000,4.72905540466,0.0,0.0,0.0,0.0,0.501749515533
6884300000000,4.60405540466,0.0,0.0,0.0,0.0,0.733230829239
6884400000000,4.35405540466,0.0,0.0,0.0,0.0,0.733230829239
6884500000000,4.60405540466,0.0,0.0,0.0,0.0,0.733230829239
6884508000000,4.40734004974,0.0,0.0,0.0,0.0,0.634556055069
6884600000000,4.56839942932,0.0,0.0,0.0,0.0,0.488143444061
6884700000000,4.77740097046,0.0,0.0,0.0,0.0,0.412220478058
6884700000000,4.60031366348,0.0,0.0,0.0,0.0,0.546793460846
6884800000000,4.52752304077,0.0,0.0,0.0,0.0,0.874958276749
6884900000000,4.610912323,0.0,0.0,0.0,0.0,0.659665107727
6884900000000,4.60813188553,0.0,0.0,0.0,0.0,0.201850414276
6885000000000,4.85794591904,0.0,0.0,0.0,0.0,0.201616287231
6885100000000,4.68396663666,0.0,0.0,0.0,0.0,0.145607948303
6885200000000,4.58203125,0.0,0.0,0.0,0.0,-0.128586292267
6885300000000,4.74280691147,0.0,0.0,0.0,0.0,0.0325894355774
6885400000000,4.688393116,0.0,0.0,0.0,0.0,0.394785404205
6885500000000,4.86260414124,0.0,0.0,0.0,0.0,0.25443649292
6885600000000,4.82441711426,0.0,0.0,0.0,0.0,0.325153827667
6885700000000,4.57441711426,0.0,0.0,0.0,0.0,0.325153827667
6885700000000,4.57441711426,0.0,0.0,0.0,0.0,0.788116693497
6885800000000,4.45658969879,0.0,0.0,0.0,0.0,0.979752063751
6885900000000,4.20659017563,0.0,0.0,0.0,0.0,0.979751825333
6885900000000,4.45658969879,0.0,0.0,0.0,0.0,0.979752063751
6886000000000,4.44304656982,0.0,0.0,0.0,0.0,0.541868686676
6886100000000,4.19304656982,0.0,0.0,0.0,0.0,0.541868448257
6886100000000,4.42114543915,0.0,0.0,0.0,0.0,0.52459192276
6886200000000,4.67114496231,0.0,0.0,0.0,0.0,0.52459192276
6886300000000,4.42114496231,0.0,0.0,0.0,0.0,0.524592161179
6886300000000,4.17114496231,0.0,0.0,0.0,0.0,0.52459192276
6886400000000,3.93482351303,0.0,0.0,0.0,0.0,0.549922704697
6886500000000,3.93482351303,0.0,0.0,0.0,0.0,0.0869598388672
6886500000000,3.93482351303,0.0,0.0,0.0,0.0,-0.376003026962
6886600000000,3.93229556084,0.0,0.0,0.0,0.0,-0.834284305573
6886700000000,3.97904920578,0.0,0.0,0.0,0.0,-0.457902193069
6886800000000,3.72904920578,0.0,0.0,0.0,0.0,-0.457902431488
6886900000000,3.65465545654,0.0,0.0,0.0,0.0,-0.296839237213
6887000000000,3.88575696945,0.0,0.0,0.0,0.0,-0.331836223602
6887100000000,3.82478189468,0.0,0.0,0.0,0.0,-0.681882381439
6887100000000,3.80810308456,0.0,0.0,0.0,0.0,-1.11395812035
6887200000000,3.81678986549,0.0,0.0,0.0,0.0,-1.56083440781
6887300000000,3.57235693932,0.0,0.0,0.0,0.0,-1.57062888145
6887400000000,3.57221651077,0.0,0.0,0.0,0.0,-2.0333275795
6887400000000,3.52467060089,0.0,0.0,0.0,0.0,-2.40824270248
6887500000000,3.29208469391,0.0,0.0,0.0,0.0,-2.39433956146
6887600000000,3.07119894028,0.0,0.0,0.0,0.0,-2.40928602219
6887700000000,2.82119894028,0.0,0.0,0.0,0.0,-2.40928602219
6887800000000,2.57121276855,0.0,0.0,0.0,0.0,-2.409283638
6887900000000,2.57913088799,0.0,0.0,0.0,0.0,-1.99265348911
6888000000000,2.80775690079,0.0,0.0,0.0,0.0,-1.95307230949
6888000000000,2.80775690079,0.0,0.0,0.0,0.0,-2.41603517532
6888100000000,3.03856134415,0.0,0.0,0.0,0.0,-2.38048744202
6888200000000,2.78856134415,0.0,0.0,0.0,0.0,-2.38048768044
6888200000000,2.99129676819,0.0,0.0,0.0,0.0,-2.30986452103
6888300000000,2.98266506195,0.0,0.0,0.0,0.0,-1.88094472885
6888400000000,2.98312807083,0.0,0.0,0.0,0.0,-1.44469118118
6888400000000,2.92177820206,0.0,0.0,0.0,0.0,-1.15690660477
6888500000000,3.01625442505,0.0,0.0,0.0,0.0,-1.35629534721
6888600000000,2.98135662079,0.0,0.0,0.0,0.0,-1.05083560944
6888600000000,2.97625398636,0.0,0.0,0.0,0.0,-0.604739427567
6888700000000,2.8611330986,0.0,0.0,0.0,0.0,-0.476889371872
6888800000000,2.73862075806,0.0,0.0,0.0,0.0,-0.26020359993
6888800000000,2.68676304817,0.0,0.0,0.0,0.0,0.105350971222
6888900000000,2.77061510086,0.0,0.0,0.0,0.0,0.412137985229
6889000000000,2.73309087753,0.0,0.0,0.0,0.0,0.741090774536
6889100000000,2.68687796593,0.0,0.0,0.0,0.0,1.01902294159
6889200000000,2.50335931778,0.0,0.0,0.0,0.0,1.09360384941
6889200000000,2.48531365395,0.0,0.0,0.0,0.0,1.52314853668
6889300000000,2.23531365395,0.0,0.0,0.0,0.0,1.52314853668
6889400000000,2.23531365395,0.0,0.0,0.0,0.0,1.06018567085
6889400000000,2.41549563408,0.0,0.0,0.0,0.0,0.957735538483
6889500000000,2.45622777939,0.0,0.0,0.0,0.0,1.27145314217
6889600000000,2.45534420013,0.0,0.0,0.0,0.0,1.7247928381
6889600000000,2.37580871582,0.0,0.0,0.0,0.0,1.91000902653
6889700000000,2.3711977005,0.0,0.0,0.0,0.0,2.35707330704
6889800000000,2.25227093697,0.0,0.0,0.0,0.0,2.49529719353
6889800000000,2.04474067688,0.0,0.0,0.0,0.0,2.41678118706
6889900000000,2.01450657845,0.0,0.0,0.0,0.0,2.57008123398
6890000000000,1.92116785049,0.0,0.0,0.0,0.0,2.76750349998
6890000000000,1.77931380272,0.0,0.0,0.0,0.0,2.61151957512
6890100000000,1.64995837212,0.0,0.0,0.0,0.0,2.83457708359
6890200000000,1.60696661472,0.0,0.0,0.0,0.0,2.74582695961
6890200000000,1.59323060513,0.0,0.0,0.0,0.0,2.97524118423
6890300000000,1.34323060513,0.0,0.0,0.0,0.0,2.97524118423
6890400000000,1.59323060513,0.0,0.0,0.0,0.0,2.97524118423
6890400000000,1.34343743324,0.0,0.0,0.0,0.0,2.97525811195
6890500000000,1.59343743324,0.0,0.0,0.0,0.0,2.97525835037
6890600000000,1.80882012844,0.0,0.0,0.0,0.0,2.92075777054
6890600000000,1.8328524828,0.0,0.0,0.0,0.0,2.51060938835
6890700000000,1.8328524828,0.0,0.0,0.0,0.0,2.0476462841
6890800000000,1.81348729134,0.0,0.0,0.0,0.0,2.47474765778
6890800000000,1.79453539848,0.0,0.0,0.0,0.0,2.05679273605
6890900000000,1.6660091877,0.0,0.0,0.0,0.0,2.23042941093
6891000000000,1.68620228767,0.0,0.0,0.0,0.0,2.45101451874
6891100000000,1.86719465256,0.0,0.0,0.0,0.0,2.37359046936
6891200000000,1.76288723946,0.0,0.0,0.0,0.0,2.20204687119
6891200000000,1.54808819294,0.0,0.0,0.0,0.0,2.23783922195
6891300000000,1.37156796455,0.0,0.0,0.0,0.0,2.29338049889
6891400000000,1.20418787003,0.0,0.0,0.0,0.0,2.14960956573
6891400000000,1.13371801376,0.0,0.0,0.0,0.0,1.82271409035
6891500000000,1.13406467438,0.0,0.0,0.0,0.0,1.36157035828
6891500000000,1.37678158283,0.0,0.0,0.0,0.0,1.36157035828
6891600000000,1.16256451607,0.0,0.0,0.0,0.0,1.3007569313
6891700000000,0.912564575672,0.0,0.0,0.0,0.0,1.30075705051
6891700000000,0.842437624931,0.0,0.0,0.0,0.0,0.967703282833
6891800000000,0.592437684536,0.0,0.0,0.0,0.0,0.967703223228
6891832000000,0.432498693466,0.0,0.0,0.0,0.0,0.800923526287
6891868000000,0.307498693466,0.0,0.0,0.0,0.0,0.569442033768
6891900000000,0.182498678565,0.0,0.0,0.0,0.0,0.337960541248
6891932000000,0.0574986822903,0.0,0.0,0.0,0.0,0.106479041278
6891968000000,0.0,0.0,0.0,0.0,0.0,0.0
6895904000000,-1.49011611938e-08,0.0,0.0,0.0,0.0,-0.462962985039
6896004000000,-0.130006954074,0.0,0.0,0.0,0.0,-0.240753635764
6896104000000,-0.00500696059316,0.0,0.0,0.0,0.0,-0.009272149764
6896204000000,0.0,0.0,0.0,0.0,0.0,0.0
6896304000000,0.0,0.0,0.0,0.0,0.0,0.0
6896404000000,-0.25,0.0,0.0,0.0,0.0,1.49011611938e-08
6896504000000,-0.349103868008,0.0,0.0,0.0,0.0,0.279437273741
6896504000000,-0.599103868008,0.0,0.0,0.0,0.0,0.279437333345
6896604000000,-0.849103868008,0.0,0.0,0.0,0.0,0.279437303543
6896704000000,-0.599103927612,0.0,0.0,0.0,0.0,0.279437303543
6896704000000,-0.811892747879,0.0,0.0,0.0,0.0,0.348346889019
6896804000000,-1.06189274788,0.0,0.0,0.0,0.0,0.348346889019
6896904000000,-1.31189274788,0.0,0.0,0.0,0.0,0.348346829414
6897004000000,-1.31189274788,0.0,0.0,0.0,0.0,-0.114616036415
6897104000000,-1.31267857552,0.0,0.0,0.0,0.0,-0.563979923725
6897204000000,-1.16697525978,0.0,0.0,0.0,0.0,-0.370838046074
6897304000000,-1.16697525978,0.0,0.0,0.0,0.0,-0.833800971508
6897304000000,-1.41697525978,0.0,0.0,0.0,0.0,-0.833800911903
6897404000000,-1.41697525978,0.0,0.0,0.0,0.0,-1.2967607975
6897504000000,-1.41697525978,0.0,0.0,0.0,0.0,-0.833797931671
6897504000000,-1.56062269211,0.0,0.0,0.0,0.0,-1.01385736465
6897604000000,-1.81062269211,0.0,0.0,0.0,0.0,-1.01385784149
6897704000000,-2.06062269211,0.0,0.0,0.0,0.0,-1.0138579607
6897704000000,-2.27492308617,0.0,0.0,0.0,0.0,-0.947747945786
6897804000000,-2.27492308617,0.0,0.0,0.0,0.0,-0.484784960747
6897904000000,-2.52492308617,0.0,0.0,0.0,0.0,-0.484785079956
6897904000000,-2.27492308617,0.0,0.0,0.0,0.0,-0.484784960747
6898004000000,-2.49021053314,0.0,0.0,0.0,0.0,-0.42652630806
6898104000000,-2.49021053314,0.0,0.0,0.0,0.0,0.0364365577698
6898104000000,-2.72665739059,0.0,0.0,0.0,0.0,0.0615344047546
6898204000000,-2.79626464844,0.0,0.0,0.0,0.0,-0.0815377235413
6898304000000,-2.92740821838,0.0,0.0,0.0,0.0,-0.301641941071
6898404000000,-3.17740821838,0.0,0.0,0.0,0.0,-0.301641702652
6898504000000,-3.42740821838,0.0,0.0,0.0,0.0,-0.301641941071
6898604000000,-3.45895814896,0.0,0.0,0.0,0.0,0.10289478302
6898604000000,-3.45895814896,0.0,0.0,0.0,0.0,0.565857648849
6898704000000,-3.67284488678,0.0,0.0,0.0,0.0,0.566790342331
6898804000000,-3.92284107208,0.0,0.0,0.0,0.0,0.566783428192
6898904000000,-4.17284107208,0.0,0.0,0.0,0.0,0.566783666611
6899004000000,-4.18002510071,0.0,0.0,0.0,0.0,0.139196157455
6899104000000,-4.12757396698,0.0,0.0,0.0,0.0,-0.226634502411
6899204000000,-4.12390184402,0.0,0.0,0.0,0.0,-0.290822267532
6899204000000,-4.28893136978,0.0,0.0,0.0,0.0,-0.382364034653
6899304000000,-4.09660720825,0.0,0.0,0.0,0.0,-0.385426521301
6899404000000,-4.14616107941,0.0,0.0,0.0,0.0,-0.0260379314423
6899504000000,-4.09449386597,0.0,0.0,0.0,0.0,-0.393317222595
6899604000000,-4.08908414841,0.0,0.0,0.0,0.0,-0.846262693405
6899604000000,-4.10344457626,0.0,0.0,0.0,0.0,-1.15022540092
6899704000000,-3.99486255646,0.0,0.0,0.0,0.0,-1.30419969559
6899804000000,-4.00863838196,0.0,0.0,0.0,0.0,-1.06083464622
6899804000000,-3.99459314346,0.0,0.0,0.0,0.0,-1.49628138542
6899904000000,-4.11862564087,0.0,0.0,0.0,0.0,-1.45503115654
6900004000000,-4.20503377914,0.0,0.0,0.0,0.0,-1.24619626999
6900004000000,-4.29266309738,0.0,0.0,0.0,0.0,-1.16122484207
6900104000000,-4.27808141708,0.0,0.0,0.0,0.0,-1.29451847076
6900204000000,-4.2751698494,0.0,0.0,0.0,0.0,-0.837872505188
6900204000000,-4.2813205719,0.0,0.0,0.0,0.0,-1.28944540024
6900304000000,-4.1816110611,0.0,0.0,0.0,0.0,-1.51553487778
6900404000000,-4.3066110611,0.0,0.0,0.0,0.0,-1.28405380249
6900404000000,-4.4128985405,0.0,0.0,0.0,0.0,-1.08687901497
6900504000000,-4.44975709915,0.0,0.0,0.0,0.0,-0.708124637604
6900604000000,-4.48048067093,0.0,0.0,0.0,0.0,-0.302057504654
6900704000000,-4.48048114777,0.0,0.0,0.0,0.0,-0.765020370483
6900804000000,-4.40868473053,0.0,0.0,0.0,0.0,-1.09502840042
6900904000000,-4.53101062775,0.0,0.0,0.0,0.0,-0.858595371246
6901004000000,-4.53101062775,0.0,0.0,0.0,0.0,-0.395632505417
6901104000000,-4.53101062775,0.0,0.0,0.0,0.0,0.0673308372498
6901204000000,-4.55684089661,0.0,0.0,0.0,0.0,-0.347470283508
6901204000000,-4.56019496918,0.0,0.0,0.0,0.0,0.0995922088623
6901304000000,-4.56253528595,0.0,0.0,0.0,0.0,0.558220386505
6901404000000,-4.39977169037,0.0,0.0,0.0,0.0,0.396671533585
6901404000000,-4.14977169037,0.0,0.0,0.0,0.0,0.396671533585
6901504000000,-4.32096481323,0.0,0.0,0.0,0.0,0.542610645294
6901604000000,-4.32096338272,0.0,0.0,0.0,0.0,1.00557136536
6901704000000,-4.51397752762,0.0,0.0,0.0,0.0,0.900042057037
6901804000000,-4.38956832886,0.0,0.0,0.0,0.0,1.12614750862
6901804000000,-4.41215705872,0.0,0.0,0.0,0.0,1.08859801292
6901904000000,-4.28715705872,0.0,0.0,0.0,0.0,1.32007932663
6902004000000,-4.11244297028,0.0,0.0,0.0,0.0,1.204403162
6902104000000,-3.86244297028,0.0,0.0,0.0,0.0,1.20440292358
6902204000000,-3.62417650223,0.0,0.0,0.0,0.0,1.18267583847
6902304000000,-3.65641212463,0.0,0.0,0.0,0.0,1.58523607254
6902304000000,-3.45522689819,0.0,0.0,0.0,0.0,1.67125868797
6902404000000,-3.51854944229,0.0,0.0,0.0,0.0,1.68191218376
6902504000000,-3.74825000763,0.0,0.0,0.0,0.0,1.64432144165
6902604000000,-3.74825000763,0.0,0.0,0.0,0.0,1.18135881424
6902704000000,-3.99700212479,0.0,0.0,0.0,0.0,1.17950439453
6902804000000,-3.9969959259,0.0,0.0,0.0,0.0,0.716552734375
6902904000000,-3.9969959259,0.0,0.0,0.0,0.0,0.253589868546
6903004000000,-3.96690130234,0.0,0.0,0.0,0.0,0.658054590225
6903104000000,-3.71690130234,0.0,0.0,0.0,0.0,0.658054590225
6903204000000,-3.86662364006,0.0,0.0,0.0,0.0,0.843754053116
6903304000000,-4.11662387848,0.0,0.0,0.0,0.0,0.843754291534
6903404000000,-4.11662387848,0.0,0.0,0.0,0.0,1.30671668053
6903504000000,-4.09915685654,0.0,0.0,0.0,0.0,0.876100301743
6903504000000,-3.84915685654,0.0,0.0,0.0,0.0,0.876100301743
6903604000000,-3.92244720459,0.0,0.0,0.0,0.0,0.569070100784
6903704000000,-3.92244720459,0.0,0.0,0.0,0.0,1.03203296661
6903804000000,-4.17244720459,0.0,0.0,0.0,0.0,1.03203320503
6903904000000,-4.13503789902,0.0,0.0,0.0,0.0,1.37975740433
6903904000000,-4.26595497131,0.0,0.0,0.0,0.0,1.35934305191
6904004000000,-4.04586791992,0.0,0.0,0.0,0.0,1.32196950912
6904104000000,-3.79586791992,0.0,0.0,0.0,0.0,1.32196998596
6904104000000,-4.02615594864,0.0,0.0,0.0,0.0,1.35823273659
6904204000000,-4.05052137375,0.0,0.0,0.0,0.0,1.74981999397
6904304000000,-3.95075321198,0.0,0.0,0.0,0.0,1.76535892487
6904304000000,-3.77461719513,0.0,0.0,0.0,0.0,1.81422567368
6904404000000,-3.8817076683,0.0,0.0,0.0,0.0,1.75475001335
6904504000000,-3.86601924896,0.0,0.0,0.0,0.0,2.0996761322
6904504000000,-3.85131025314,0.0,0.0,0.0,0.0,1.75186538696
6904604000000,-3.67279839516,0.0,0.0,0.0,0.0,1.88319277763
6904604000000,-3.74679374695,0.0,0.0,0.0,0.0,1.70878505707
6904704000000,-3.94461011887,0.0,0.0,0.0,0.0,1.63195180893
6904704000000,-3.8280673027,0.0,0.0,0.0,0.0,1.83067297935
6904804000000,-3.96821808815,0.0,0.0,0.0,0.0,1.83558225632
6904804000000,-4.1135020256,0.0,0.0,0.0,0.0,1.64166402817
6904904000000,-3.9885020256,0.0,0.0,0.0,0.0,1.87314486504
6904904000000,-4.11070632935,0.0,0.0,0.0,0.0,1.64683961868
6905004000000,-3.98028326035,0.0,0.0,0.0,0.0,1.86827802658
6905004000000,-4.01471853256,0.0,0.0,0.0,0.0,1.58288002014
6905104000000,-3.89040851593,0.0,0.0,0.0,0.0,1.65222430229
6905104000000,-3.64040875435,0.0,0.0,0.0,0.0,1.65222454071
6905136000000,-3.39040875435,0.0,0.0,0.0,0.0,1.65222454071
6905168000000,-3.14040875435,0.0,0.0,0.0,0.0,1.65222454071
6905204000000,-2.89040875435,0.0,0.0,0.0,0.0,1.65222454071
6905236000000,-2.64040875435,0.0,0.0,0.0,0.0,1.6522244215
6905268000000,-2.39040899277,0.0,0.0,0.0,0.0,1.65222454071
6905304000000,-2.14040899277,0.0,0.0,0.0,0.0,1.65222454071
6905336000000,-1.89040899277,0.0,0.0,0.0,0.0,1.6522244215
6905368000000,-1.64040899277,0.0,0.0,0.0,0.0,1.65222454071
6905404000000,-1.39040899277,0.0,0.0,0.0,0.0,1.65222454071
6905436000000,-1.14040899277,0.0,0.0,0.0,0.0,1.65222477913
6905468000000,-0.891305208206,0.0,0.0,0.0,0.0,1.65056526661
6905504000000,-0.766305208206,0.0,0.0,0.0,0.0,1.41908371449
6905536000000,-0.641305208206,0.0,0.0,0.0,0.0,1.18760228157
6905568000000,-0.516305208206,0.0,0.0,0.0,0.0,0.956120789051
6905604000000,-0.391305208206,0.0,0.0,0.0,0.0,0.724639296532
6905636000000,-0.266305208206,0.0,0.0,0.0,0.0,0.493157804012
6905668000000,-0.141305193305,0.0,0.0,0.0,0.0,0.261676281691
6905704000000,-0.016305193305,0.0,0.0,0.0,0.0,0.0301948040724
6905736000000,0.0,0.0,0.0,0.0,0.0,0.0
6919400000000,0.0,0.0,0.0,0.0,0.0,0.462962955236
6919500000000,-0.243716567755,0.0,0.0,0.0,0.0,0.451732188463
6919600000000,-0.4229837358,0.0,0.0,0.0,0.0,0.582714676857
6919700000000,-0.610062539577,0.0,0.0,0.0,0.0,0.649440526962
6919800000000,-0.851635634899,0.0,0.0,0.0,0.0,0.66504573822
6919900000000,-1.09225344658,0.0,0.0,0.0,0.0,0.679589450359
6920000000000,-0.960749864578,0.0,0.0,0.0,0.0,0.899027466774
6920100000000,-0.932723522186,0.0,0.0,0.0,0.0,1.28540682793
6920200000000,-1.16665160656,0.0,0.0,0.0,0.0,1.26491308212
6920300000000,-1.16665148735,0.0,0.0,0.0,0.0,1.72787606716
6920400000000,-1.41665148735,0.0,0.0,0.0,0.0,1.72787606716
6920500000000,-1.5174100399,0.0,0.0,0.0,0.0,1.99710214138
6920600000000,-1.59255766869,0.0,0.0,0.0,0.0,1.91288483143
6920700000000,-1.82556128502,0.0,0.0,0.0,0.0,1.94435596466
6920800000000,-2.07142663002,0.0,0.0,0.0,0.0,1.93670284748
6920900000000,-2.16389274597,0.0,0.0,0.0,0.0,1.67414712906
6921000000000,-2.4073984623,0.0,0.0,0.0,0.0,1.68343043327
6921100000000,-2.44981455803,0.0,0.0,0.0,0.0,1.29901611805
6921200000000,-2.58562755585,0.0,0.0,0.0,0.0,1.10861253738
6921300000000,-2.58562755585,0.0,0.0,0.0,0.0,0.645649671555
6921400000000,-2.56257772446,0.0,0.0,0.0,0.0,0.232569217682
6921500000000,-2.80632901192,0.0,0.0,0.0,0.0,0.220997810364
6921600000000,-3.05632901192,0.0,0.0,0.0,0.0,0.220997810364
6921700000000,-3.16283369064,0.0,0.0,0.0,0.0,0.486730098724
6921800000000,-3.22409081459,0.0,0.0,0.0,0.0,0.13879609108
6921900000000,-3.22409152985,0.0,0.0,0.0,0.0,-0.32416510582
6922000000000,-3.47409129143,0.0,0.0,0.0,0.0,-0.324165344238
6922100000000,-3.47409152985,0.0,0.0,0.0,0.0,-0.787127971649
6922200000000,-3.72409105301,0.0,0.0,0.0,0.0,-0.787128210068
6922300000000,-3.48800420761,0.0,0.0,0.0,0.0,-0.761364221573
6922400000000,-3.63127803802,0.0,0.0,0.0,0.0,-0.875287771225
6922500000000,-3.80044031143,0.0,0.0,0.0,0.0,-1.02478647232
6922600000000,-3.9514966011,0.0,0.0,0.0,0.0,-1.20269060135
6922700000000,-3.89740467072,0.0,0.0,0.0,0.0,-1.01285123825
6922800000000,-4.04180526733,0.0,0.0,0.0,0.0,-1.2051961422
6922900000000,-4.2918047905,0.0,0.0,0.0,0.0,-1.2051961422
6923000000000,-4.28797149658,0.0,0.0,0.0,0.0,-0.750598669052
6923100000000,-4.499335289,0.0,0.0,0.0,0.0,-0.822147369385
6923200000000,-4.27319526672,0.0,0.0,0.0,0.0,-0.842590093613
6923300000000,-4.50212812424,0.0,0.0,0.0,0.0,-0.811325073242
6923400000000,-4.29702758789,0.0,0.0,0.0,0.0,-0.756051778793
6923500000000,-4.33782434464,0.0,0.0,0.0,0.0,-0.372484445572
6923600000000,-4.54430866241,0.0,0.0,0.0,0.0,-0.398515224457
6923700000000,-4.78955507278,0.0,0.0,0.0,0.0,-0.389713287354
6923800000000,-4.73111915588,0.0,0.0,0.0,0.0,-0.497866630554
6923900000000,-4.73111915588,0.0,0.0,0.0,0.0,-0.0349040031433
6924000000000,-4.98111915588,0.0,0.0,0.0,0.0,-0.0349035263062
6924100000000,-4.89327383041,0.0,0.0,0.0,0.0,0.170471191406
6924200000000,-4.74477958679,0.0,0.0,0.0,0.0,0.358441352844
6924300000000,-4.78363609314,0.0,0.0,0.0,0.0,0.11745929718
6924400000000,-4.85786724091,0.0,0.0,0.0,0.0,0.083770275116
6924500000000,-4.88122749329,0.0,0.0,0.0,0.0,-0.18096113205
6924600000000,-4.99409294128,0.0,0.0,0.0,0.0,-0.0109353065491
6924700000000,-4.9999370575,0.0,0.0,0.0,0.0,-0.00010871887207
6924800000000,-4.96254634857,0.0,0.0,0.0,0.0,-0.0672092437744
6924900000000,-4.98620796204,0.0,0.0,0.0,0.0,-0.0252637863159
6925000000000,-4.87600898743,0.0,0.0,0.0,0.0,-0.221880435944
6925100000000,-4.88368034363,0.0,0.0,0.0,0.0,-0.215218067169
6925200000000,-4.89496994019,0.0,0.0,0.0,0.0,-0.122877120972
6925300000000,-4.88728046417,0.0,0.0,0.0,0.0,-0.0861835479736
6925400000000,-4.97914218903,0.0,0.0,0.0,0.0,-0.0328121185303
6925500000000,-4.97459936142,0.0,0.0,0.0,0.0,-0.0257024765015
6925600000000,-4.9975233078,0.0,0.0,0.0,0.0,5.14984130859e-05
6925700000000,-4.97340679169,0.0,0.0,0.0,0.0,-0.0331802368164
6925800000000,-4.96128177643,0.0,0.0,0.0,0.0,-0.0716800689697
6925900000000,-4.96928501129,0.0,0.0,0.0,0.0,-0.0564842224121
6926000000000,-4.99917888641,0.0,0.0,0.0,0.0,0.0014500617981
6926100000000,-4.97226476669,0.0,0.0,0.0,0.0,-0.05135679245
6926200000000,-4.72226476669,0.0,0.0,0.0,0.0,-0.0513572692871
6926300000000,-4.71729278564,0.0,0.0,0.0,0.0,-0.00230646133423
6926400000000,-4.9199886322,0.0,0.0,0.0,0.0,-0.036479473114
6926500000000,-4.84484386444,0.0,0.0,0.0,0.0,0.287326812744
6926600000000,-4.96405029297,0.0,0.0,0.0,0.0,0.0454125404358
6926700000000,-4.97178936005,0.0,0.0,0.0,0.0,-0.0522427558899
6926800000000,-4.8144197464,0.0,0.0,0.0,0.0,0.086434841156
6926900000000,-4.83706712723,0.0,0.0,0.0,0.0,-0.283288955688
6927000000000,-4.69772624969,0.0,0.0,0.0,0.0,-0.413918495178
6927100000000,-4.76878356934,0.0,0.0,0.0,0.0,-0.401068687439
6927200000000,-4.83172512054,0.0,0.0,0.0,0.0,-0.0572929382324
6927200000000,-4.96703147888,0.0,0.0,0.0,0.0,-0.0452265739441
6927300000000,-4.87072706223,0.0,0.0,0.0,0.0,0.239394664764
6927400000000,-4.96845006943,0.0,0.0,0.0,0.0,0.0583720207214
6927500000000,-4.71845006943,0.0,0.0,0.0,0.0,0.0583720207214
6927600000000,-4.71298503876,0.0,0.0,0.0,0.0,-0.361969947815
6927700000000,-4.73345756531,0.0,0.0,0.0,0.0,0.0612530708313
6927800000000,-4.97390174866,0.0,0.0,0.0,0.0,0.0451531410217
6927900000000,-4.78747272491,0.0,0.0,0.0,0.0,0.112730026245
6928000000000,-4.83187294006,0.0,0.0,0.0,0.0,-0.236629486084
6928100000000,-4.95392799377,0.0,0.0,0.0,0.0,-0.0702681541443
6928200000000,-4.93318939209,0.0,0.0,0.0,0.0,-0.110880374908
6928300000000,-4.97968196869,0.0,0.0,0.0,0.0,0.0376181602478
6928400000000,-4.8826751709,0.0,0.0,0.0,0.0,-0.0673742294312
6928400000000,-4.86400032043,0.0,0.0,0.0,0.0,-0.140591144562
6928500000000,-4.84537029266,0.0,0.0,0.0,0.0,-0.245757579803
6928600000000,-4.92766427994,0.0,0.0,0.0,0.0,-0.099401473999
6928700000000,-4.98104143143,0.0,0.0,0.0,0.0,-0.0351052284241
6928800000000,-4.89532470703,0.0,0.0,0.0,0.0,-0.19167470932
6928900000000,-4.9551076889,0.0,0.0,0.0,0.0,-0.0769200325012
6929000000000,-4.87091588974,0.0,0.0,0.0,0.0,-0.196974754333
6929100000000,-4.92937231064,0.0,0.0,0.0,0.0,-0.11146068573
6929200000000,-4.81701135635,0.0,0.0,0.0,0.0,-0.322078704834
6929300000000,-4.8741350174,0.0,0.0,0.0,0.0,-0.232995986938
6929400000000,-4.6241350174,0.0,0.0,0.0,0.0,-0.232995510101
6929500000000,-4.40260505676,0.0,0.0,0.0,0.0,-0.207891464233
6929600000000,-4.58058547974,0.0,0.0,0.0,0.0,-0.31218624115
6929700000000,-4.52383995056,0.0,0.0,0.0,0.0,-0.654999732971
6929800000000,-4.65609931946,0.0,0.0,0.0,0.0,-0.583601951599
6929900000000,-4.79166507721,0.0,0.0,0.0,0.0,-0.384098052979
6930000000000,-4.66769886017,0.0,0.0,0.0,0.0,-0.608995437622
6930000000000,-4.54442119598,0.0,0.0,0.0,0.0,-0.843665361404
6930100000000,-4.50608921051,0.0,0.0,0.0,0.0,-0.914650201797
6930200000000,-4.50608921051,0.0,0.0,0.0,0.0,-0.451687335968
6930300000000,-4.50608921051,0.0,0.0,0.0,0.0,-0.914650201797
6930400000000,-4.49508857727,0.0,0.0,0.0,0.0,-0.730144500732
6930500000000,-4.59665393829,0.0,0.0,0.0,0.0,-0.683283805847
6930600000000,-4.59665393829,0.0,0.0,0.0,0.0,-0.220321178436
6930700000000,-4.59665393829,0.0,0.0,0.0,0.0,-0.683283805847
6930800000000,-4.60950422287,0.0,0.0,0.0,0.0,-0.28364944458
6930900000000,-4.60950422287,0.0,0.0,0.0,0.0,0.179313659668
6931000000000,-4.60950660706,0.0,0.0,0.0,0.0,0.642271757126
6931100000000,-4.48473453522,0.0,0.0,0.0,0.0,0.831672430038
6931100000000,-4.54651451111,0.0,0.0,0.0,0.0,0.591376066208
6931200000000,-4.60964298248,0.0,0.0,0.0,0.0,0.271406650543
6931300000000,-4.35964298248,0.0,0.0,0.0,0.0,0.27140712738
6931336000000,-4.10964345932,0.0,0.0,0.0,0.0,0.27140712738
6931368000000,-3.85964345932,0.0,0.0,0.0,0.0,0.27140712738
6931400000000,-3.60964345932,0.0,0.0,0.0,0.0,0.271406888962
6931436000000,-3.35964345932,0.0,0.0,0.0,0.0,0.27140712738
6931468000000,-3.10964345932,0.0,0.0,0.0,0.0,0.271406888962
6931500000000,-2.85964345932,0.0,0.0,0.0,0.0,0.27140712738
6931536000000,-2.60964345932,0.0,0.0,0.0,0.0,0.271406888962
6931568000000,-2.35964345932,0.0,0.0,0.0,0.0,0.27140712738
6931600000000,-2.10964369774,0.0,0.0,0.0,0.0,0.271407008171
6931636000000,-1.85964369774,0.0,0.0,0.0,0.0,0.271407008171
6931668000000,-1.60964369774,0.0,0.0,0.0,0.0,0.271407008171
6931700000000,-1.35964369774,0.0,0.0,0.0,0.0,0.271407008171
6931736000000,-1.10964369774,0.0,0.0,0.0,0.0,0.271407067776
6931768000000,-0.859643697739,0.0,0.0,0.0,0.0,0.271407067776
6931800000000,-0.609643697739,0.0,0.0,0.0,0.0,0.271407037973
6931836000000,-0.359643727541,0.0,0.0,0.0,0.0,0.271407067776
6931868000000,-0.128101751208,0.0,0.0,0.0,0.0,0.237225487828
6931900000000,-0.00310175446793,0.0,0.0,0.0,0.0,0.00574398972094
6931936000000,0.0,0.0,0.0,0.0,0.0,0.0
6936136000000,-0.25,0.0,0.0,0.0,0.0,0.0
6936236000000,0.0,0.0,0.0,0.0,0.0,0.0
6936336000000,0.0,0.0,0.0,0.0,0.0,0.462962985039
6936436000000,0.0273195821792,0.0,0.0,0.0,0.0,0.0505918189883
6936536000000,0.125706598163,0.0,0.0,0.0,0.0,-0.230172976851
6936636000000,0.375706613064,0.0,0.0,0.0,0.0,-0.230172976851
6936736000000,0.625706553459,0.0,0.0,0.0,0.0,-0.230172991753
6936836000000,0.875706553459,0.0,0.0,0.0,0.0,-0.230172991753
6936936000000,0.875706791878,0.0,0.0,0.0,0.0,0.232779860497
6937036000000,0.875706732273,0.0,0.0,0.0,0.0,0.695742726326
6937136000000,0.682563722134,0.0,0.0,0.0,0.0,0.590452075005
6937236000000,0.932563602924,0.0,0.0,0.0,0.0,0.5904520154
6937336000000,1.18256354332,0.0,0.0,0.0,0.0,0.590451955795
6937436000000,1.25019848347,0.0,0.0,0.0,0.0,0.252738714218
6937536000000,1.50019836426,0.0,0.0,0.0,0.0,0.252738714218
6937636000000,1.25019836426,0.0,0.0,0.0,0.0,0.252738833427
6937736000000,1.50019836426,0.0,0.0,0.0,0.0,0.252738714218
6937836000000,1.25019836426,0.0,0.0,0.0,0.0,0.252738833427
6937936000000,1.28138315678,0.0,0.0,0.0,0.0,0.643633663654
6938036000000,1.52450990677,0.0,0.0,0.0,0.0,0.637510180473
6938136000000,1.77450990677,0.0,0.0,0.0,0.0,0.637510180473
6938236000000,1.58601355553,0.0,0.0,0.0,0.0,0.523614287376
6938336000000,1.82298636436,0.0,0.0,0.0,0.0,0.538652539253
6938436000000,1.8168759346,0.0,0.0,0.0,0.0,0.892969489098
6938536000000,1.6871099472,0.0,0.0,0.0,0.0,0.887032270432
6938636000000,1.67982017994,0.0,0.0,0.0,0.0,0.649508118629
6938736000000,1.86569023132,0.0,0.0,0.0,0.0,0.540035963058
6938836000000,2.01738929749,0.0,0.0,0.0,0.0,0.41911315918
6938936000000,2.14181470871,0.0,0.0,0.0,0.0,0.190393805504
6939036000000,2.11597752571,0.0,0.0,0.0,0.0,-0.116000652313
6939136000000,2.36597084999,0.0,0.0,0.0,0.0,-0.116013288498
6939236000000,2.37645483017,0.0,0.0,0.0,0.0,-0.559561014175
6939336000000,2.35824203491,0.0,0.0,0.0,0.0,-0.130326032639
6939436000000,2.5800909996,0.0,0.0,0.0,0.0,-0.182457685471
6939536000000,2.3300909996,0.0,0.0,0.0,0.0,-0.182457685471
6939636000000,2.56436872482,0.0,0.0,0.0,0.0,-0.211572885513
6939736000000,2.76569986343,0.0,0.0,0.0,0.0,-0.301700353622
6939836000000,2.84970617294,0.0,0.0,0.0,0.0,-0.609023332596
6939936000000,3.04202127457,0.0,0.0,0.0,0.0,-0.71581363678
6940036000000,3.16000461578,0.0,0.0,0.0,0.0,-0.960245609283
6940136000000,3.30926799774,0.0,0.0,0.0,0.0,-0.773696184158
6940236000000,3.52416610718,0.0,0.0,0.0,0.0,-0.73916053772
6940336000000,3.51135396957,0.0,0.0,0.0,0.0,-0.352344274521
6940436000000,3.51435613632,0.0,0.0,0.0,0.0,-0.675317764282
6940536000000,3.45403242111,0.0,0.0,0.0,0.0,-0.69308924675
6940636000000,3.52028608322,0.0,0.0,0.0,0.0,-0.773821592331
6940736000000,3.68926692009,0.0,0.0,0.0,0.0,-0.623787403107
6940836000000,3.67972755432,0.0,0.0,0.0,0.0,-0.178489685059
6940936000000,3.89919233322,0.0,0.0,0.0,0.0,-0.140072584152
6941036000000,3.94681882858,0.0,0.0,0.0,0.0,-0.505218267441
6941136000000,4.19672012329,0.0,0.0,0.0,0.0,-0.505140542984
6941236000000,4.38073968887,0.0,0.0,0.0,0.0,-0.528964281082
6941336000000,4.5826177597,0.0,0.0,0.0,0.0,-0.447422504425
6941436000000,4.74917507172,0.0,0.0,0.0,0.0,-0.293019294739
6941536000000,4.83990859985,0.0,0.0,0.0,0.0,0.00180530548096
6941636000000,4.96875095367,0.0,0.0,0.0,0.0,-0.0203304290771
6941736000000,4.95752811432,0.0,0.0,0.0,0.0,0.0785989761353
6941836000000,4.82422971725,0.0,0.0,0.0,0.0,0.294416904449
6941936000000,4.95752573013,0.0,0.0,0.0,0.0,0.0783505439758
6942036000000,4.88993787766,0.0,0.0,0.0,0.0,0.143642425537
6942136000000,4.92613792419,0.0,0.0,0.0,0.0,0.117319583893
6942236000000,4.94140052795,0.0,0.0,0.0,0.0,-0.00885725021362
6942336000000,4.84809160233,0.0,0.0,0.0,0.0,0.281311988831
6942436000000,4.85426187515,0.0,0.0,0.0,0.0,-0.169932365417
6942536000000,4.99272823334,0.0,0.0,0.0,0.0,-0.0134401321411
6942636000000,4.86773538589,0.0,0.0,0.0,0.0,-0.244934558868
6942736000000,4.84961223602,0.0,0.0,0.0,0.0,0.184464931488
6942836000000,4.92953109741,0.0,0.0,0.0,0.0,0.097891330719
6942936000000,4.80502223969,0.0,0.0,0.0,0.0,0.112051486969
6942936000000,4.9701089859,0.0,0.0,0.0,0.0,0.0422792434692
6943036000000,4.97753858566,0.0,0.0,0.0,0.0,0.0415816307068
6943136000000,4.86127185822,0.0,0.0,0.0,0.0,0.148251056671
6943136000000,4.97520828247,0.0,0.0,0.0,0.0,0.00169849395752
6943236000000,4.90107822418,0.0,0.0,0.0,0.0,0.134426116943
6943336000000,4.99857521057,0.0,0.0,0.0,0.0,0.000946521759033
6943436000000,4.97926330566,0.0,0.0,0.0,0.0,0.00876140594482
6943536000000,4.88329839706,0.0,0.0,0.0,0.0,0.158967494965
6943636000000,4.8779706955,0.0,0.0,0.0,0.0,-0.21969461441
6943736000000,4.92097997665,0.0,0.0,0.0,0.0,0.144503593445
6943836000000,4.90628433228,0.0,0.0,0.0,0.0,0.143182754517
6943936000000,4.95802402496,0.0,0.0,0.0,0.0,-0.0180215835571
6944036000000,4.85887813568,0.0,0.0,0.0,0.0,0.261337757111
6944136000000,4.8628320694,0.0,0.0,0.0,0.0,-0.194303035736
6944236000000,4.9077091217,0.0,0.0,0.0,0.0,0.170903682709
6944336000000,4.87629652023,0.0,0.0,0.0,0.0,-0.128988742828
6944436000000,4.85803794861,0.0,0.0,0.0,0.0,-0.168444633484
6944536000000,4.99997520447,0.0,0.0,0.0,0.0,-4.29153442383e-05
6944636000000,4.87497615814,0.0,0.0,0.0,0.0,-0.231526374817
6944736000000,4.98111534119,0.0,0.0,0.0,0.0,-0.024055480957
6944836000000,4.90189647675,0.0,0.0,0.0,0.0,-0.181663990021
6944936000000,4.99659013748,0.0,0.0,0.0,0.0,0.00631189346313
6945036000000,4.99999904633,0.0,0.0,0.0,0.0,-2.86102294922e-06
6945136000000,4.99904870987,0.0,0.0,0.0,0.0,0.00159740447998
6945236000000,4.96069049835,0.0,0.0,0.0,0.0,0.062849521637
